[
  {
    "name": "はな優膳",
    "address": "北海道函館市大手町-16-12",
    "latitude": 41.7692401251,
    "longitude": 140.7268423468,
    "shop_id": "J003450708"
  },
  {
    "name": "GanGuro ガングロ",
    "address": "北海道函館市松風町４－６　クリスタルビル１F",
    "latitude": 41.7709275508,
    "longitude": 140.7309324348,
    "shop_id": "J000728211"
  },
  {
    "name": "やきとり 大吉 函館店",
    "address": "北海道函館市松風町２－５",
    "latitude": 41.7701504603,
    "longitude": 140.7321543113,
    "shop_id": "J000643278"
  },
  {
    "name": "Bar Twilight トワイライト ホテルリソル函館",
    "address": "北海道函館市若松町6-3　ホテルリソル函館内10階",
    "latitude": 41.771564039,
    "longitude": 140.7276879728,
    "shop_id": "J001000082"
  },
  {
    "name": "shot bar ちゃもい",
    "address": "北海道函館市松風町-611 大丸ビル２F",
    "latitude": 41.7718515712,
    "longitude": 140.7298127629,
    "shop_id": "J001292681"
  },
  {
    "name": "大衆酒場 やきとりこころ",
    "address": "北海道函館市松風町６－１３",
    "latitude": 41.7718174171,
    "longitude": 140.7300830179,
    "shop_id": "J003516930"
  },
  {
    "name": "たろ吉",
    "address": "北海道函館市松風町5－12",
    "latitude": 41.7715558082,
    "longitude": 140.7309221227,
    "shop_id": "J003559763"
  },
  {
    "name": "海鮮居酒屋 大漁旗",
    "address": "北海道函館市若松町7-17",
    "latitude": 41.7717445553,
    "longitude": 140.7271296802,
    "shop_id": "J001009823"
  },
  {
    "name": "箱館居酒屋 熾美",
    "address": "北海道函館市松風町6-14",
    "latitude": 41.7718235335,
    "longitude": 140.7302755,
    "shop_id": "J003450379"
  },
  {
    "name": "海鮮居酒屋 いかり屋",
    "address": "北海道函館市松風町６－１１　キャピトルビル１Ｆ",
    "latitude": 41.7719457256,
    "longitude": 140.7297838713,
    "shop_id": "J001178386"
  },
  {
    "name": "HOTBOX 函館",
    "address": "北海道函館市松風町3-11 ",
    "latitude": 41.7710920082,
    "longitude": 140.731976497,
    "shop_id": "J001051086"
  },
  {
    "name": "鉄板焼 大門亭",
    "address": "北海道函館市松風町2丁目8番 大門ビル7F",
    "latitude": 41.7705065449,
    "longitude": 140.7326709109,
    "shop_id": "J003516967"
  },
  {
    "name": "屋台 ライダーキック",
    "address": "北海道函館市松風町１－１－６",
    "latitude": 41.7700643854,
    "longitude": 140.7329784077,
    "shop_id": "J003516933"
  },
  {
    "name": "濱焼北海道魚萬 函館南口駅前店",
    "address": "北海道函館市若松町１６－１０ 函館駅前ビル１Ｆ２Ｆ",
    "latitude": 41.7722373135,
    "longitude": 140.7283923152,
    "shop_id": "J001201736"
  },
  {
    "name": "ヤン衆漁場 二代目 昌栄丸",
    "address": "北海道函館市松風町10－3",
    "latitude": 41.7716188817,
    "longitude": 140.7317314898,
    "shop_id": "J000796240"
  },
  {
    "name": "居酒屋次郎",
    "address": "北海道函館市松風町７－２",
    "latitude": 41.7722526412,
    "longitude": 140.7300399419,
    "shop_id": "J000684374"
  },
  {
    "name": "ラムしゃぶ函館吉田",
    "address": "北海道函館市松風町-8-2",
    "latitude": 41.772178218,
    "longitude": 140.730429355,
    "shop_id": "J003450975"
  },
  {
    "name": "マルカン漁業部 海がき 本店",
    "address": "北海道函館市松風町８－２",
    "latitude": 41.7721854395,
    "longitude": 140.7304343541,
    "shop_id": "J001137516"
  },
  {
    "name": "ONE WEEK",
    "address": "北海道函館市松風町10-2 Aゲートホテル1F 久保田写真館隣",
    "latitude": 41.7715738944,
    "longitude": 140.7319653599,
    "shop_id": "J003797000"
  },
  {
    "name": "やさい肉巻き まいった",
    "address": "北海道函館市松風町１０－１５",
    "latitude": 41.7717977504,
    "longitude": 140.7317731426,
    "shop_id": "J003693159"
  },
  {
    "name": "ROKAN ローカン",
    "address": "北海道函館市大森町２－４　サンリフレ函館１F",
    "latitude": 41.7651834958,
    "longitude": 140.7301983792,
    "shop_id": "J000796224"
  },
  {
    "name": "花もめん",
    "address": "北海道函館市松風町7-5 大門横丁内",
    "latitude": 41.7723979079,
    "longitude": 140.7302440818,
    "shop_id": "J001295511"
  },
  {
    "name": "函館おばんざい　酒肴",
    "address": "北海道函館市松風町7-5 大門横丁 17区画",
    "latitude": 41.7723979079,
    "longitude": 140.7302440818,
    "shop_id": "J001295698"
  },
  {
    "name": "函館いか家",
    "address": "北海道函館市松風町-7-5 大門横丁内",
    "latitude": 41.7723979079,
    "longitude": 140.7302440818,
    "shop_id": "J001295708"
  },
  {
    "name": "串焼き　わびすけ",
    "address": "北海道函館市松風町7-5大門横丁内",
    "latitude": 41.7723979079,
    "longitude": 140.7302440818,
    "shop_id": "J001295826"
  },
  {
    "name": "BAR 1096",
    "address": "北海道函館市松風町7-5 大門横丁内",
    "latitude": 41.7723979079,
    "longitude": 140.7302440818,
    "shop_id": "J001296143"
  },
  {
    "name": "ら ぶべっと",
    "address": "北海道函館市松風町７－５　ひかりの屋台　大門横丁",
    "latitude": 41.7724265138,
    "longitude": 140.7301863077,
    "shop_id": "J000796671"
  },
  {
    "name": "炉ばた 大謀",
    "address": "北海道函館市松風町７－５　ひかりの屋台　大門横丁",
    "latitude": 41.772456229,
    "longitude": 140.7300760383,
    "shop_id": "J000796415"
  },
  {
    "name": "relax BAR HY",
    "address": "北海道函館市若松町8-17 ",
    "latitude": 41.7722630921,
    "longitude": 140.7267482971,
    "shop_id": "J001219231"
  },
  {
    "name": "粉もん屋 とん平 函館駅前店",
    "address": "北海道函館市若松町19－3",
    "latitude": 41.7726178428,
    "longitude": 140.7290122374,
    "shop_id": "J001211466"
  },
  {
    "name": "大門一番地大漁酒場マル波商店",
    "address": "北海道函館市松風町7-6",
    "latitude": 41.7725217749,
    "longitude": 140.7300210396,
    "shop_id": "J000989900"
  },
  {
    "name": "はこだて鮨金 総本店",
    "address": "北海道函館市松風町７－１８",
    "latitude": 41.7724651265,
    "longitude": 140.730385454,
    "shop_id": "J000257575"
  },
  {
    "name": "北の台所 ヤマタイチ",
    "address": "北海道函館市松風町７－５　ひかりの屋台　大門横丁",
    "latitude": 41.7725462164,
    "longitude": 140.7300210383,
    "shop_id": "J000643257"
  },
  {
    "name": "ラムジン",
    "address": "北海道函館市松風町７－５　ひかりの屋台　大門横丁",
    "latitude": 41.7725612158,
    "longitude": 140.7300577007,
    "shop_id": "J000796272"
  },
  {
    "name": "常寿し",
    "address": "北海道函館市松風町10-16 ",
    "latitude": 41.7717363836,
    "longitude": 140.7322431032,
    "shop_id": "J000257749"
  },
  {
    "name": "CAMP5",
    "address": "北海道函館市松風町10-6-2F",
    "latitude": 41.7719419037,
    "longitude": 140.7319014562,
    "shop_id": "J001099685"
  },
  {
    "name": "函館海鮮ジンギスカン 浜焼きベイベー",
    "address": "北海道函館市若松町18-22",
    "latitude": 41.7726400844,
    "longitude": 140.7297143943,
    "shop_id": "J001176416"
  },
  {
    "name": "ジンギスカン 函館吉田",
    "address": "北海道函館市松風町８－６　1階",
    "latitude": 41.77245236,
    "longitude": 140.7306951487,
    "shop_id": "J003365592"
  },
  {
    "name": "食彩酒房 裏横丁",
    "address": "北海道函館市松風町８",
    "latitude": 41.7724501402,
    "longitude": 140.7307626427,
    "shop_id": "J000852140"
  },
  {
    "name": "函館 チェーズ",
    "address": "北海道函館市松風町７－５　ひかりの屋台　大門横丁",
    "latitude": 41.7726167721,
    "longitude": 140.7302932317,
    "shop_id": "J000796409"
  },
  {
    "name": "函館ホルモン",
    "address": "北海道函館市松風町７大門横丁内",
    "latitude": 41.7726167721,
    "longitude": 140.7302932317,
    "shop_id": "J001099670"
  },
  {
    "name": "居酒屋 北の鬼遺産 函館駅前店",
    "address": "北海道函館市若松町１８－６",
    "latitude": 41.7727556232,
    "longitude": 140.729622174,
    "shop_id": "J003828403"
  },
  {
    "name": "カフェ にしむら",
    "address": "北海道函館市若松町２０－１　キラリス函館Ｂ１Ｆ",
    "latitude": 41.7728691926,
    "longitude": 140.7287291935,
    "shop_id": "J000796258"
  },
  {
    "name": "大衆串横丁てっちゃん キラリス函館駅前店",
    "address": "北海道函館市若松町-20-1 キラリス函館１F",
    "latitude": 41.7728941877,
    "longitude": 140.7286686421,
    "shop_id": "J001291861"
  },
  {
    "name": "森山料理店",
    "address": "北海道函館市松風町10-15",
    "latitude": 41.7720624551,
    "longitude": 140.7322291973,
    "shop_id": "J001230266"
  },
  {
    "name": "Twin Feather ツインフェザー 駅前店",
    "address": "北海道函館市松風町7-7　松風ビル１F",
    "latitude": 41.7728020292,
    "longitude": 140.7303434945,
    "shop_id": "J001201602"
  },
  {
    "name": "焼肉物語 牛若 ユニゾ函館駅前店",
    "address": "北海道函館市若松町18-19 ユニゾインエクスプレス函館駅前1階",
    "latitude": 41.772887004,
    "longitude": 140.7298682553,
    "shop_id": "J003565000"
  },
  {
    "name": "紅茶専門店 ハーヴェスト",
    "address": "北海道函館市松風町7-7　松風ビル２Ｆ",
    "latitude": 41.7728111947,
    "longitude": 140.7303432162,
    "shop_id": "J000257690"
  },
  {
    "name": "夜景バー エステラード",
    "address": "北海道函館市若松町14番10号",
    "latitude": 41.772661652,
    "longitude": 140.7266424511,
    "shop_id": "J001269124"
  },
  {
    "name": "ハーバーダイニング",
    "address": "北海道函館市若松町14番10号",
    "latitude": 41.772661652,
    "longitude": 140.7266424511,
    "shop_id": "J001269198"
  },
  {
    "name": "函館ダイニング 雅家",
    "address": "北海道函館市若松町８－１４",
    "latitude": 41.7724561015,
    "longitude": 140.7260164086,
    "shop_id": "J000796883"
  },
  {
    "name": "海鮮料理と釜めし あらき",
    "address": "北海道函館市若松町9-22函館朝市ひろば1階",
    "latitude": 41.7722941503,
    "longitude": 140.7251828826,
    "shop_id": "J001268762"
  },
  {
    "name": "一花亭 たびじ",
    "address": "北海道函館市若松町９－１４　どんぶり横丁内",
    "latitude": 41.7726432898,
    "longitude": 140.7256555977,
    "shop_id": "J000781820"
  },
  {
    "name": "成吉思汗 登楽居 トライ",
    "address": "北海道函館市松風町7-12",
    "latitude": 41.7731067289,
    "longitude": 140.7307920476,
    "shop_id": "J001200678"
  },
  {
    "name": "はる鮨",
    "address": "北海道函館市若松町１８番１７号",
    "latitude": 41.7732089232,
    "longitude": 140.7302954205,
    "shop_id": "J003516965"
  },
  {
    "name": "函館国際ホテル アゼリア",
    "address": "北海道函館市大手町５－１０",
    "latitude": 41.7691930537,
    "longitude": 140.7226230121,
    "shop_id": "J000796246"
  },
  {
    "name": "ビュメール 函館国際ホテル",
    "address": "北海道函館市大手町５－１０ 函館国際ホテル西館８階",
    "latitude": 41.7692324919,
    "longitude": 140.722574681,
    "shop_id": "J000796250"
  },
  {
    "name": "函館塩ラーメン しなの",
    "address": "北海道函館市若松町２０－１０",
    "latitude": 41.7734610649,
    "longitude": 140.7286961078,
    "shop_id": "J000781806"
  },
  {
    "name": "鮨 一路",
    "address": "北海道函館市若松町20-10",
    "latitude": 41.7734732864,
    "longitude": 140.7287227714,
    "shop_id": "J001145546"
  },
  {
    "name": "日本料理 うなぎ 松前",
    "address": "北海道函館市大手町５－１０",
    "latitude": 41.7691930512,
    "longitude": 140.7225424639,
    "shop_id": "J000796248"
  },
  {
    "name": "函館 朝市食堂 二番館",
    "address": "北海道函館市若松町９－１９",
    "latitude": 41.7726266092,
    "longitude": 140.7251478671,
    "shop_id": "J000740163"
  },
  {
    "name": "スカイラウンジ ル・モン・ガギュー",
    "address": "北海道函館市大手町５－１０",
    "latitude": 41.7691930502,
    "longitude": 140.7225102446,
    "shop_id": "J000100278"
  },
  {
    "name": "おうけい 櫻桂",
    "address": "北海道函館市若松町９－１５",
    "latitude": 41.7727557674,
    "longitude": 140.7253706173,
    "shop_id": "J000257720"
  },
  {
    "name": "いくら亭",
    "address": "北海道函館市若松町９－１５　函館朝市内",
    "latitude": 41.7727793772,
    "longitude": 140.725421167,
    "shop_id": "J000100183"
  },
  {
    "name": "鮨処 森山",
    "address": "北海道函館市松風町17-19",
    "latitude": 41.7724488159,
    "longitude": 140.7328149556,
    "shop_id": "J000691742"
  },
  {
    "name": "ADDICT アディクト",
    "address": "北海道函館市松風町２０-１ライジングビル２階",
    "latitude": 41.7732211664,
    "longitude": 140.7310097991,
    "shop_id": "J003323451"
  },
  {
    "name": "茶夢",
    "address": "北海道函館市若松町９－１５",
    "latitude": 41.7727932597,
    "longitude": 140.7252695134,
    "shop_id": "J000100355"
  },
  {
    "name": "うにむらかみ 函館本店",
    "address": "北海道函館市大手町２２－１",
    "latitude": 41.7720235923,
    "longitude": 140.7240702214,
    "shop_id": "J000100347"
  },
  {
    "name": "はこだて寿司",
    "address": "北海道函館市若松町－19－11　ホテルテトラ函館駅前　２Ｆ",
    "latitude": 41.7736324618,
    "longitude": 140.729608515,
    "shop_id": "J001276598"
  },
  {
    "name": "函館朝市 味の一番",
    "address": "北海道函館市若松町１１－１３",
    "latitude": 41.7728013044,
    "longitude": 140.7249548194,
    "shop_id": "J000100415"
  },
  {
    "name": "栄屋食堂 函館朝市",
    "address": "北海道函館市若松町１１－４",
    "latitude": 41.7724429889,
    "longitude": 140.7241507461,
    "shop_id": "J000796187"
  },
  {
    "name": "海光房",
    "address": "北海道函館市若松町１１－８",
    "latitude": 41.7728887751,
    "longitude": 140.7243576467,
    "shop_id": "J000637049"
  },
  {
    "name": "函館 茶漬酒房",
    "address": "北海道函館市若松町-12-8 ハコビバ内",
    "latitude": 41.7742648146,
    "longitude": 140.7273434084,
    "shop_id": "J001292589"
  },
  {
    "name": "はこだてビール",
    "address": "北海道函館市大手町５－２２",
    "latitude": 41.7688541647,
    "longitude": 140.7213203721,
    "shop_id": "J000100136"
  },
  {
    "name": "海峡 海味鮨",
    "address": "北海道函館市若松町12-8 ハコビバ内　函館駅前横丁",
    "latitude": 41.7744275787,
    "longitude": 140.7275289379,
    "shop_id": "J001264624"
  },
  {
    "name": "しゃぶしゃぶテムジン",
    "address": "北海道函館市若松町12-8 ハコビバ1階",
    "latitude": 41.774429796,
    "longitude": 140.72738284,
    "shop_id": "J003950003"
  },
  {
    "name": "高橋屋",
    "address": "北海道函館市大森町３３－１",
    "latitude": 41.7694382189,
    "longitude": 140.7376605158,
    "shop_id": "J000257814"
  },
  {
    "name": "羊羊亭",
    "address": "北海道函館市豊川町１２－８　函館ベイ美食倶楽部内",
    "latitude": 41.7673448424,
    "longitude": 140.7194334066,
    "shop_id": "J000637044"
  },
  {
    "name": "函館まるかつ水産 本店",
    "address": "北海道函館市豊川町１２－１０　函館ベイ美食倶楽部",
    "latitude": 41.7670004409,
    "longitude": 140.7194834213,
    "shop_id": "J000637042"
  },
  {
    "name": "函館Dining雅家 ベイエリア店",
    "address": "北海道函館市豊川町12-9 ",
    "latitude": 41.7672392981,
    "longitude": 140.7193884166,
    "shop_id": "J003715225"
  },
  {
    "name": "海風楼",
    "address": "北海道函館市豊川町１２－６　ラビスタ函館ベイ１F",
    "latitude": 41.7676947847,
    "longitude": 140.7189362101,
    "shop_id": "J000780712"
  },
  {
    "name": "シェリーズバー",
    "address": "北海道函館市豊川町１２－６　ラビスタ函館ベイ１２F",
    "latitude": 41.7676947847,
    "longitude": 140.7189362101,
    "shop_id": "J000796271"
  },
  {
    "name": "ノルテ ラビスタ函館ベイ",
    "address": "北海道函館市豊川町１２－６　ラビスタ函館ベイ１F",
    "latitude": 41.7676947847,
    "longitude": 140.7189362101,
    "shop_id": "J000742705"
  },
  {
    "name": "紫ぜん",
    "address": "北海道函館市豊川町１０－１０",
    "latitude": 41.7662421958,
    "longitude": 140.7193918055,
    "shop_id": "J000257842"
  },
  {
    "name": "BAR hanabi",
    "address": "北海道函館市宝来町34-1蔵",
    "latitude": 41.7624149399,
    "longitude": 140.7213612848,
    "shop_id": "J001099587"
  },
  {
    "name": "restaurant Toui",
    "address": "北海道函館市若松町３２－１９ロイヤルシティ参番館若松町１F",
    "latitude": 41.777213158,
    "longitude": 140.7301010471,
    "shop_id": "J000257786"
  },
  {
    "name": "サルティンボッカ 函館",
    "address": "北海道函館市末広町１３－２５",
    "latitude": 41.7656897122,
    "longitude": 140.717798093,
    "shop_id": "J000796165"
  },
  {
    "name": "Woodrow s British Pub ウッドローズ ブリティッシュ パブ",
    "address": "北海道函館市末広町８-１２",
    "latitude": 41.7635900109,
    "longitude": 140.7192744648,
    "shop_id": "J003323878"
  },
  {
    "name": "the very very BEAST ベリーベリービースト",
    "address": "北海道函館市宝来町２３－３",
    "latitude": 41.7623485331,
    "longitude": 140.720536086,
    "shop_id": "J000100276"
  }
]