[
  {
    "name": "山猫バル",
    "address": "北海道札幌市中央区北１条西２丁目　11-1　23山京ビル1F",
    "latitude": 43.0630366875,
    "longitude": 141.3539986609,
    "shop_id": "J001001558"
  },
  {
    "name": "すみれホテル 四季彩",
    "address": "北海道札幌市中央区北１条西２丁目すみれホテルＢ１Ｆ",
    "latitude": 43.0631111214,
    "longitude": 141.3539531051,
    "shop_id": "J001052427"
  },
  {
    "name": "Risotteria GAKU 時計台",
    "address": "北海道札幌市中央区北１条西２時計台ビル地下１Ｆ",
    "latitude": 43.0629572282,
    "longitude": 141.3532515126,
    "shop_id": "J000060559"
  },
  {
    "name": "Hello,New Day.",
    "address": "北海道札幌市中央区北１条西３丁目３　札幌MNビル１階",
    "latitude": 43.0625019924,
    "longitude": 141.3528435224,
    "shop_id": "J001285693"
  },
  {
    "name": "海へ 時計台前店",
    "address": "北海道札幌市中央区北１条西３丁目　札幌ＭＮビルＢ１Ｆ",
    "latitude": 43.0626847514,
    "longitude": 141.3529468351,
    "shop_id": "J000026524"
  },
  {
    "name": "ピザ&パスタ ラパウザ 時計台前店",
    "address": "北海道札幌市中央区北１条西３丁目　札幌ＭＮビル２Ｆ（サンクスさん上）",
    "latitude": 43.0625172682,
    "longitude": 141.3528390774,
    "shop_id": "J000026532"
  },
  {
    "name": "居酒屋 美濃家",
    "address": "北海道札幌市中央区北１条西３　ばらと北1条ビルB1F",
    "latitude": 43.0623414499,
    "longitude": 141.3526457727,
    "shop_id": "J000727419"
  },
  {
    "name": "北海道海鮮居酒屋 いろりあん 時計台店",
    "address": "北海道札幌市中央区北１条西２丁目２　りんどうビル４F",
    "latitude": 43.0634241513,
    "longitude": 141.3543316622,
    "shop_id": "J001227359"
  },
  {
    "name": "牡蠣と魚介のワイン酒場 FISHMANS SAPPORO フィッシュマンズ サッポロ",
    "address": "北海道札幌市中央区北１条西２丁目2-3　りんどうビル３Ｆ",
    "latitude": 43.0634608126,
    "longitude": 141.354303607,
    "shop_id": "J001144803"
  },
  {
    "name": "浜っ子 大通 時計台店",
    "address": "北海道札幌市中央区北１条西３ばらと北一条ビルB1",
    "latitude": 43.0623550538,
    "longitude": 141.3524749543,
    "shop_id": "J003762887"
  },
  {
    "name": "シャンパンバー プルミエ 大通ビッセ店",
    "address": "北海道札幌市中央区大通西３大通ビッセ４F",
    "latitude": 43.0613479547,
    "longitude": 141.352502513,
    "shop_id": "J001269356"
  },
  {
    "name": "根 串焼 おでん 北1条店",
    "address": "北海道札幌市中央区北１条西３丁目敷島北一条ビル駐車場２Ｆ・３Ｆ",
    "latitude": 43.0625886304,
    "longitude": 141.3522874574,
    "shop_id": "J000028472"
  },
  {
    "name": "揚げたて串揚げ 大衆串横丁 てっちゃん 時計台通り前店",
    "address": "北海道札幌市中央区北１条西３－３－２２",
    "latitude": 43.0632113481,
    "longitude": 141.3527651532,
    "shop_id": "J001211136"
  },
  {
    "name": "札幌ぶたや038 北2条店",
    "address": "北海道札幌市中央区北２条西２丁目STV北2条ビル　B1F",
    "latitude": 43.0636943854,
    "longitude": 141.3539994542,
    "shop_id": "J001294131"
  },
  {
    "name": "北海道食市場 丸海屋 離",
    "address": "北海道札幌市中央区北２条西２丁目　STV北２条ビル地下１階",
    "latitude": 43.0637268889,
    "longitude": 141.3542263757,
    "shop_id": "J001039881"
  },
  {
    "name": "酒肴日和 アテニヨル 清明北一西三",
    "address": "北海道札幌市中央区北１条西３丁目　STV時計台通ビル1F・B1F",
    "latitude": 43.0631644064,
    "longitude": 141.3526734978,
    "shop_id": "J001217273"
  },
  {
    "name": "肉の割烹田村大通BISSE",
    "address": "北海道札幌市中央区大通西３－７　北洋大通センター4F",
    "latitude": 43.0614059954,
    "longitude": 141.3522636426,
    "shop_id": "J000990345"
  },
  {
    "name": "伊まり 札幌駅時計台前店",
    "address": "北海道札幌市中央区北１条西３丁目３－２５　荒巻時計台ビルB１",
    "latitude": 43.0628652645,
    "longitude": 141.3523213263,
    "shop_id": "J003763701"
  },
  {
    "name": "ホッカイドウサッポロライオン新店",
    "address": "北海道札幌市中央区南２条西２丁目7　サッポロビル",
    "latitude": 43.0615620839,
    "longitude": 141.352150588,
    "shop_id": "J003942535"
  },
  {
    "name": "焼鳥 串カツ&飲み放題 たま 駅前通り店",
    "address": "北海道札幌市中央区北１条西３丁目　北尾ビルＢ１Ｆ",
    "latitude": 43.0617501135,
    "longitude": 141.3520564186,
    "shop_id": "J000773130"
  },
  {
    "name": "Ristorante Mero リストランテ メロ",
    "address": "北海道札幌市中央区大通西３大通BISSE４F",
    "latitude": 43.0612279635,
    "longitude": 141.3523258699,
    "shop_id": "J001209358"
  },
  {
    "name": "焼鳥 串カツ&飲み放題 たま テレビ塔店",
    "address": "北海道札幌市中央区大通西１丁目　テレビ塔Ｂ１Ｆ",
    "latitude": 43.0610700595,
    "longitude": 141.3563713391,
    "shop_id": "J000027742"
  },
  {
    "name": "宮の森珈琲 さっぽろテレビ塔店",
    "address": "北海道札幌市中央区大通西１丁目さっぽろテレビ塔地下一階",
    "latitude": 43.0611078339,
    "longitude": 141.3564093889,
    "shop_id": "J001280741"
  },
  {
    "name": "さっぽろテレビ塔ビアガーデン",
    "address": "北海道札幌市中央区大通西１丁目　さっぽろテレビ塔",
    "latitude": 43.0611078339,
    "longitude": 141.3564093889,
    "shop_id": "J003850277"
  },
  {
    "name": "和食バル はれるや HARERUYA 北1条店",
    "address": "北海道札幌市中央区北１条西３丁目3　敷島北1条ビルB1F",
    "latitude": 43.0624139185,
    "longitude": 141.3519563875,
    "shop_id": "J001145107"
  },
  {
    "name": "マビの台所 大通店",
    "address": "北海道札幌市中央区大通西２陶管ビル１Ｆ",
    "latitude": 43.0602889749,
    "longitude": 141.3542832462,
    "shop_id": "J000707073"
  },
  {
    "name": "〈貸切レストラン〉シャンクレール札幌",
    "address": "北海道札幌市中央区大通西２丁目５ 陶管ビル３F",
    "latitude": 43.0602889749,
    "longitude": 141.3542832462,
    "shop_id": "J003351005"
  },
  {
    "name": "耀い かがよい 札幌大通BISSE店",
    "address": "北海道札幌市中央区大通西３丁目７番地　大通BISSE３F",
    "latitude": 43.0603503375,
    "longitude": 141.3537077401,
    "shop_id": "J003649504"
  },
  {
    "name": "炙屋 大通ビッセ店",
    "address": "北海道札幌市中央区大通西３丁目　大通ビッセ４F",
    "latitude": 43.0611321393,
    "longitude": 141.3522483829,
    "shop_id": "J000962974"
  },
  {
    "name": "LECKER レッカー 札幌ル トロワ店 大通",
    "address": "北海道札幌市中央区大通西１丁目１３　ル・トロワ　７F　（旧丸井今井大通別館）",
    "latitude": 43.0604623291,
    "longitude": 141.3555658949,
    "shop_id": "J001143817"
  },
  {
    "name": "北国の味 北海しゃぶしゃぶ 大通店",
    "address": "北海道札幌市中央区大通西２丁目　5番地陶管ビル2F",
    "latitude": 43.0602409256,
    "longitude": 141.354295748,
    "shop_id": "J001154832"
  },
  {
    "name": "あつま ゆのみ茶屋",
    "address": "北海道札幌市中央区南一条西２丁目11 丸井今井札幌本店大通館７階",
    "latitude": 43.0603253873,
    "longitude": 141.355137054,
    "shop_id": "J001285447"
  },
  {
    "name": "北海道らーめん奥原流 久楽 本店",
    "address": "北海道札幌市中央区北２条西１丁目 ピア２・１　１階",
    "latitude": 43.0639291049,
    "longitude": 141.3547877004,
    "shop_id": "J000621961"
  },
  {
    "name": "味の時計台 駅前総本店",
    "address": "北海道札幌市中央区北１条西３丁目１　（敷島北1条ビル地下）",
    "latitude": 43.0623594771,
    "longitude": 141.351846401,
    "shop_id": "J000624091"
  },
  {
    "name": "ピカンティ 札幌駅前店",
    "address": "北海道札幌市中央区北２条西１丁目8番地４　青山ビル１Ｆ",
    "latitude": 43.0639696507,
    "longitude": 141.3546410448,
    "shop_id": "J000768658"
  },
  {
    "name": "築地玉寿司 札幌丸井今井店",
    "address": "北海道札幌市中央区南１条西２丁目　丸井今井百貨店大通館１０F ",
    "latitude": 43.0602148296,
    "longitude": 141.3546609936,
    "shop_id": "J000851809"
  },
  {
    "name": "カプリチョーザ 札幌北一条店",
    "address": "北海道札幌市中央区北１条西３丁目　3-10　KOKOホテル札幌駅前２F",
    "latitude": 43.0631263395,
    "longitude": 141.3521841009,
    "shop_id": "J001136305"
  },
  {
    "name": "炭火居酒屋 炎 北1条KOKOホテル札幌駅前店",
    "address": "北海道札幌市中央区北１条西３丁目３－１０　ＫＯＫＯホテル札幌駅前２Ｆ",
    "latitude": 43.063129672,
    "longitude": 141.3521718796,
    "shop_id": "J001137281"
  },
  {
    "name": "和牛 しゃぶしゃぶ すき焼き 八木",
    "address": "北海道札幌市中央区大通西１　13番地　ル・トロワ　8階   地下鉄大通駅直結 ",
    "latitude": 43.0603923388,
    "longitude": 141.355600896,
    "shop_id": "J001215667"
  },
  {
    "name": "新時代 札幌北1条店",
    "address": "北海道札幌市中央区北１条西３丁目３－１０　Koko Hotel 札幌駅前",
    "latitude": 43.0631221723,
    "longitude": 141.3521521597,
    "shop_id": "J003599975"
  },
  {
    "name": "牛禅 札幌駅前通り店",
    "address": "北海道札幌市中央区北1条西3丁目3-11桂和北1条ビル11階",
    "latitude": 43.0627330438,
    "longitude": 141.3518741535,
    "shop_id": "J001145986"
  },
  {
    "name": "魚々路 ととろ 札幌店",
    "address": "北海道札幌市中央区北１条西３-3-11　桂和北1条ビル3階",
    "latitude": 43.0627508189,
    "longitude": 141.3518594315,
    "shop_id": "J001195140"
  },
  {
    "name": "いただきコッコちゃん 北1条店",
    "address": "北海道札幌市中央区北１条西３丁目３－１１　桂和北１条ビル２Ｆ",
    "latitude": 43.0627552626,
    "longitude": 141.3518522097,
    "shop_id": "J001161431"
  },
  {
    "name": "蔵之助 KURANOSUKE 札幌店",
    "address": "北海道札幌市中央区北１条西３-3-11  桂和北１条ビル3階",
    "latitude": 43.0627330427,
    "longitude": 141.3518424897,
    "shop_id": "J001195139"
  },
  {
    "name": "個室居酒屋 イザカヤラボ IZAKAYA Lab 札幌駅前店",
    "address": "北海道札幌市中央区北２条西２-38　不二家岡本ビル2階",
    "latitude": 43.0638354507,
    "longitude": 141.3531239709,
    "shop_id": "J001247006"
  },
  {
    "name": "串鳥 時計台通店",
    "address": "北海道札幌市中央区北２条西２丁目　不二家岡本ビル1F",
    "latitude": 43.0638354507,
    "longitude": 141.3531239709,
    "shop_id": "J000636077"
  },
  {
    "name": "韓国料理 モクポ 札幌駅前店",
    "address": "北海道札幌市中央区北２条西２丁目38　不二家岡本ビル2階 ",
    "latitude": 43.0638354507,
    "longitude": 141.3531239709,
    "shop_id": "J003341417"
  },
  {
    "name": "炭火焼肉酒家 牛角 札幌時計台通り店",
    "address": "北海道札幌市中央区北２条西２丁目不二家岡本ビル2階",
    "latitude": 43.0638143383,
    "longitude": 141.3530042611,
    "shop_id": "J001000167"
  },
  {
    "name": "札幌キッチン SAPPORO KITCHEN",
    "address": "北海道札幌市中央区北１条西３－３－２４ 札幌中央ビル１・２F　受付１Ｆ",
    "latitude": 43.0628605276,
    "longitude": 141.3518535921,
    "shop_id": "J001219226"
  },
  {
    "name": "北海道 旬の海鮮と和食 蝦夷丸 札幌本店",
    "address": "北海道札幌市中央区北１条西３丁目3-24 札幌中央ビル2F",
    "latitude": 43.0628605276,
    "longitude": 141.3518535921,
    "shop_id": "J001283944"
  },
  {
    "name": "北海道 旬の海鮮と和食 EZOMARU 札幌本店",
    "address": "北海道札幌市中央区北１条西３丁目3-24 札幌中央ビル2F",
    "latitude": 43.0628605276,
    "longitude": 141.3518535921,
    "shop_id": "J001283945"
  },
  {
    "name": "笑酒場 waraizaka 札幌大通り店",
    "address": "北海道札幌市中央区北１条西３丁目3-24 札幌中央ビル2F",
    "latitude": 43.0628605276,
    "longitude": 141.3518535921,
    "shop_id": "J001283955"
  },
  {
    "name": "中国四川料理 四川酒家",
    "address": "北海道札幌市中央区北１条西３丁目3-24 札幌中央ビルB1",
    "latitude": 43.0628605276,
    "longitude": 141.3518535921,
    "shop_id": "J003498396"
  },
  {
    "name": "美味門 札幌駅前店",
    "address": "北海道札幌市中央区北１条西３－３－２８ 札幌中央ビル５F",
    "latitude": 43.0628466398,
    "longitude": 141.3518352613,
    "shop_id": "J003737333"
  },
  {
    "name": "はねもん屋 本店",
    "address": "北海道札幌市中央区北１条西３丁目　札幌中央ビル３F",
    "latitude": 43.0628213637,
    "longitude": 141.351792489,
    "shop_id": "J000026407"
  },
  {
    "name": "HOKKAIDO CUISINE KAMUY ホッカイドウ キュイジーヌ カムイ",
    "address": "北海道札幌市中央区大通西１丁目12番地　ザ ロイヤルパーク キャンバス 札幌大通公園 1F",
    "latitude": 43.0604745646,
    "longitude": 141.3560158526,
    "shop_id": "J001294939"
  },
  {
    "name": "札幌日和 札幌駅前本店",
    "address": "北海道札幌市中央区北１条西３-3-24",
    "latitude": 43.0628694134,
    "longitude": 141.3517913751,
    "shop_id": "J003498570"
  },
  {
    "name": "札幌商店 大通店",
    "address": "北海道札幌市中央区北１条西３－３－２８ 札幌中央ビル５F",
    "latitude": 43.0628596925,
    "longitude": 141.3517966529,
    "shop_id": "J003737336"
  },
  {
    "name": "健美食楽 Chinese Food in紅燈籠",
    "address": "北海道札幌市中央区大通西１-13 ル・トロワ７F",
    "latitude": 43.0603181857,
    "longitude": 141.3557397765,
    "shop_id": "J003851050"
  },
  {
    "name": "中華楼 北二条店",
    "address": "北海道札幌市中央区北２条西３丁目札幌北二条ビルＢ１Ｆ(旧 LEE北2条ビル)",
    "latitude": 43.0635393515,
    "longitude": 141.3523862793,
    "shop_id": "J000711612"
  },
  {
    "name": "アンド スウィーツ!スウィーツ!ビュッフェ!アリス 札幌ル・トロワ店",
    "address": "北海道札幌市中央区大通西１丁目11　ル・トロワ2F",
    "latitude": 43.0602812447,
    "longitude": 141.3557095038,
    "shop_id": "J001128095"
  },
  {
    "name": "chubby macaron sapporo",
    "address": "北海道札幌市中央区大通西１-13 ルトロワ　地下２F",
    "latitude": 43.060245972,
    "longitude": 141.3557322816,
    "shop_id": "J001278863"
  },
  {
    "name": "和牛 しゃぶしゃぶ すき焼 富士山",
    "address": "北海道札幌市中央区大通西１丁目13番地　ル・トロワ8F",
    "latitude": 43.060245972,
    "longitude": 141.3557322816,
    "shop_id": "J001287276"
  },
  {
    "name": "マチナカ TAKIBI BAR",
    "address": "北海道札幌市中央区北２条西２丁目２３クロスホテル札幌前庭",
    "latitude": 43.06404293,
    "longitude": 141.3532603346,
    "shop_id": "J003671677"
  },
  {
    "name": "北海道十割 蕎麦群 ル・トロワ店",
    "address": "北海道札幌市中央区大通西１丁目１３番地　ル・トロワ ７階",
    "latitude": 43.0602320851,
    "longitude": 141.3557425593,
    "shop_id": "J001193438"
  },
  {
    "name": "PIZZERIA E BAR LA GIOSTRA ピッツェリア エ バール ラ ジョストラ",
    "address": "北海道札幌市中央区北２条西１目１番地　ホテルモントレ　エーデルホフ札幌南館１階",
    "latitude": 43.0640027377,
    "longitude": 141.3557253871,
    "shop_id": "J001042411"
  },
  {
    "name": "チャイナパーク",
    "address": "北海道札幌市中央区大通西１丁目桂和大通ビル50　B1F",
    "latitude": 43.06052596,
    "longitude": 141.3564049802,
    "shop_id": "J000660723"
  },
  {
    "name": "旬采ダイニング ぜん屋",
    "address": "北海道札幌市中央区大通西１丁目　桂和大通ビル50Ｂ２Ｆ（地下街直結）　大通26番出口横",
    "latitude": 43.0604684658,
    "longitude": 141.3563694314,
    "shop_id": "J000030623"
  },
  {
    "name": "天ぷらとワインぶどうの花 敷島ビル店",
    "address": "北海道札幌市中央区北２条西３丁目１敷島ビルB1F",
    "latitude": 43.0635151763,
    "longitude": 141.3520377019,
    "shop_id": "J001200449"
  },
  {
    "name": "LA GIOSTRA BEER GARDEN ラ ジョストラ ビアガーデン",
    "address": "北海道札幌市中央区北２条西１丁目１番地　ホテルモントレ　エーデルホフ札幌南館１階",
    "latitude": 43.0642207598,
    "longitude": 141.3555098382,
    "shop_id": "J003763828"
  },
  {
    "name": "山の猿 時計台通り店",
    "address": "北海道札幌市中央区北２条西２丁目フージャース札幌ビル１Ｆ",
    "latitude": 43.0641390187,
    "longitude": 141.3529309148,
    "shop_id": "J001017517"
  },
  {
    "name": "鳥屋 札幌駅前店",
    "address": "北海道札幌市中央区北２条西３丁目１番地 敷島ビルB1F",
    "latitude": 43.063575167,
    "longitude": 141.3519738153,
    "shop_id": "J001203555"
  },
  {
    "name": "大衆酒場 八重洲居酒場商店 札幌北一条チカホ店",
    "address": "北海道札幌市中央区北１条西４丁目２番地　ノースプラザビル地下１Ｆ",
    "latitude": 43.0623691783,
    "longitude": 141.351240623,
    "shop_id": "J001177225"
  },
  {
    "name": "キッチンカフェ なんたり",
    "address": "北海道札幌市中央区北２条西３丁目　敷島ビルB1",
    "latitude": 43.0634779508,
    "longitude": 141.3517980041,
    "shop_id": "J000660735"
  },
  {
    "name": "とりの介 時計台通り店",
    "address": "北海道札幌市中央区北２条西２丁目　フージャース札幌ビルＢ１Ｆ",
    "latitude": 43.0641987345,
    "longitude": 141.3529575753,
    "shop_id": "J000027878"
  },
  {
    "name": "炭火やきとり 八方 テレビ塔前店",
    "address": "北海道札幌市中央区大通西１丁目大通ＫＨビル地下１Ｆ",
    "latitude": 43.0602237714,
    "longitude": 141.3563122294,
    "shop_id": "J000839400"
  },
  {
    "name": "スープカレー しゃば蔵",
    "address": "北海道札幌市中央区北１条西４丁目札幌ノースプラザビルB1F",
    "latitude": 43.0621916972,
    "longitude": 141.3511570304,
    "shop_id": "J000727418"
  },
  {
    "name": "生そうめんと卵雑炊の店 春帆",
    "address": "北海道札幌市中央区北２条西３敷島ビル地下1階",
    "latitude": 43.063580163,
    "longitude": 141.3518710467,
    "shop_id": "J003893042"
  },
  {
    "name": "北海道ダイニング ミチノイエ",
    "address": "北海道札幌市中央区南１条西２丁目　丸井今井札幌　大通館１０F",
    "latitude": 43.0598237885,
    "longitude": 141.3553498426,
    "shop_id": "J003737493"
  },
  {
    "name": "相撲茶屋 恵大苑",
    "address": "北海道札幌市中央区北１条西４丁目２－２　札幌ノースプラザＢ１Ｆ",
    "latitude": 43.0623669525,
    "longitude": 141.351122023,
    "shop_id": "J000027943"
  },
  {
    "name": "蔵元直営 千歳鶴 吉翔",
    "address": "北海道札幌市中央区北１条西４丁目２-２　札幌ノースプラザビルＢ1Ｆ",
    "latitude": 43.0623669525,
    "longitude": 141.351122023,
    "shop_id": "J000723294"
  },
  {
    "name": "The TEA 札幌駅前店",
    "address": "北海道札幌市中央区北２条西２丁目３３－２マーシャルビル1階",
    "latitude": 43.0642851149,
    "longitude": 141.3530197866,
    "shop_id": "J001282448"
  },
  {
    "name": "浜の漁師居酒屋 こちら とれたて 根室港",
    "address": "北海道札幌市中央区北２条西３丁目1 敷島ビルB1F（地下歩行空間直結）",
    "latitude": 43.0635915474,
    "longitude": 141.3517766103,
    "shop_id": "J000979779"
  },
  {
    "name": "大人の隠れ家個室居酒屋 道楽ぼうず 札幌駅前店",
    "address": "北海道札幌市中央区北２条西２丁目１９　ＴＫＰ札幌ビル１Ｆ",
    "latitude": 43.0643909443,
    "longitude": 141.3532914217,
    "shop_id": "J003517356"
  },
  {
    "name": "創作和食居酒屋 絆屋 ばんや 札幌駅前店",
    "address": "北海道札幌市中央区北２条西２丁目１９　ＴＫＰ札幌ビル１Ｆ",
    "latitude": 43.0643909443,
    "longitude": 141.3532914217,
    "shop_id": "J003517357"
  },
  {
    "name": "おでんとさかな せろり 札幌駅前店",
    "address": "北海道札幌市中央区北２条西２丁目１９　ＴＫＰ札幌ビル１Ｆ",
    "latitude": 43.0643909443,
    "longitude": 141.3532914217,
    "shop_id": "J003517358"
  },
  {
    "name": "ランデブー ラウンジ",
    "address": "北海道札幌市中央区北２条西１丁目１番地　ニューオータニイン札幌１F",
    "latitude": 43.0645656934,
    "longitude": 141.354760442,
    "shop_id": "J000100033"
  },
  {
    "name": "味処　北國屋",
    "address": "北海道札幌市中央区北２条西３丁目プラザ北２条ビル２F",
    "latitude": 43.0640331756,
    "longitude": 141.352240985,
    "shop_id": "J003404000"
  },
  {
    "name": "Chassy 札幌",
    "address": "北海道札幌市中央区北２条西３丁目１－１１ プラザ北２条ビル B1F",
    "latitude": 43.0640331756,
    "longitude": 141.352240985,
    "shop_id": "J003517177"
  },
  {
    "name": "日本料理 隨縁亭 札幌",
    "address": "北海道札幌市中央区北２条西１－１ホテルモントレエーデルホフ札幌13F",
    "latitude": 43.064444623,
    "longitude": 141.3555575979,
    "shop_id": "J000636148"
  },
  {
    "name": "パーティー&ダイニング フォーシーズン",
    "address": "北海道札幌市中央区北２条西１丁目－１  ニューオータニイン札幌　地下１階",
    "latitude": 43.0645931861,
    "longitude": 141.3546396182,
    "shop_id": "J001262215"
  },
  {
    "name": "分とく山　喜多",
    "address": "北海道札幌市中央区南１条西２丁目18 IKEUCHI GATE6階",
    "latitude": 43.0595954468,
    "longitude": 141.3542444031,
    "shop_id": "J003473925"
  },
  {
    "name": "海鮮としゃぶしゃぶ とら TORA 札幌駅前店",
    "address": "北海道札幌市中央区北２条西３－１　タケサトビル　B1階",
    "latitude": 43.0642917653,
    "longitude": 141.3525462188,
    "shop_id": "J003323484"
  },
  {
    "name": "まるごと北海道 花の舞 札幌北2条店",
    "address": "北海道札幌市中央区北２条西２－３１　桂和北２条ビル１・２階",
    "latitude": 43.0644381466,
    "longitude": 141.3528570145,
    "shop_id": "J000954988"
  },
  {
    "name": "饂飩四國 大通札幌シャンテ店",
    "address": "北海道札幌市中央区南１条西１丁目　札幌シャンテＢ２Ｆ",
    "latitude": 43.0596574315,
    "longitude": 141.3557075975,
    "shop_id": "J000026508"
  },
  {
    "name": "麻布茶房 札幌シャンテ店",
    "address": "北海道札幌市中央区南一条西一丁目　札幌シャンテB2F",
    "latitude": 43.0597329849,
    "longitude": 141.355921462,
    "shop_id": "J000990370"
  },
  {
    "name": "大衆酒場 036 ゼロサンロク 大通り店",
    "address": "北海道札幌市中央区南１条西３丁目8－11　札石ビルB1F",
    "latitude": 43.0594935003,
    "longitude": 141.3538036167,
    "shop_id": "J001245664"
  },
  {
    "name": "梅の花 札幌店",
    "address": "北海道札幌市中央区南１条西１札幌シャンテ４F",
    "latitude": 43.059665215,
    "longitude": 141.355910356,
    "shop_id": "J000636050"
  },
  {
    "name": "炭火焼と海鮮、手づくり豆富 まいど! 大通南1条店",
    "address": "北海道札幌市中央区南１条西１丁目　大成札幌ビル　地下１階",
    "latitude": 43.0596827212,
    "longitude": 141.3561656092,
    "shop_id": "J001153191"
  },
  {
    "name": "北海しゃぶしゃぶ 北2条店",
    "address": "北海道札幌市中央区北２条西３丁目　正門館ビルB１F",
    "latitude": 43.0643295261,
    "longitude": 141.3521679181,
    "shop_id": "J000989809"
  },
  {
    "name": "イタリアンダイニング グラッツェ 北2条店",
    "address": "北海道札幌市中央区北２条西３第２５桂和ビル３Ｆ",
    "latitude": 43.0639065003,
    "longitude": 141.3515060606,
    "shop_id": "J000744142"
  },
  {
    "name": "四季の蔵 札幌 本店",
    "address": "北海道札幌市中央区北２条西３－１－１８第２５桂和ビル",
    "latitude": 43.0639470525,
    "longitude": 141.3515524427,
    "shop_id": "J000027633"
  },
  {
    "name": "鳥心 札幌駅前店",
    "address": "北海道札幌市中央区北２条西３－１－１８　第２５桂和ビル　７Ｆ　８Ｆ",
    "latitude": 43.0639431638,
    "longitude": 141.3515460546,
    "shop_id": "J001000831"
  },
  {
    "name": "個室焼き鳥 あか峯 札幌駅前店",
    "address": "北海道札幌市中央区北２条西３－１－１８　第25桂和ビル 8F",
    "latitude": 43.063941775,
    "longitude": 141.3515413329,
    "shop_id": "J001028475"
  },
  {
    "name": "個室居酒屋 DENDEN でんでん 札幌駅前店",
    "address": "北海道札幌市中央区北２条西３－１－１８　第25桂和ビル 7F",
    "latitude": 43.063941775,
    "longitude": 141.3515413329,
    "shop_id": "J001028476"
  },
  {
    "name": "炭火居酒屋 炎 北2条店",
    "address": "北海道札幌市中央区北２条西３丁目１－３４　正門館ビル２Ｆ",
    "latitude": 43.064325358,
    "longitude": 141.3521087572,
    "shop_id": "J001040307"
  },
  {
    "name": "炭火焼と海鮮、手づくり豆富 まいど! 札幌駅前通り店",
    "address": "北海道札幌市中央区北２条西３-1-18第25桂和ビル2F",
    "latitude": 43.0639734391,
    "longitude": 141.3515807718,
    "shop_id": "J001116894"
  },
  {
    "name": "くいしんぼ 札幌本店",
    "address": "北海道札幌市中央区北２条西３-1-18　第25桂和ビル9F",
    "latitude": 43.0639734391,
    "longitude": 141.3515807718,
    "shop_id": "J003873172"
  },
  {
    "name": "個室居酒屋 串将軍 札幌本店",
    "address": "北海道札幌市中央区北２条西３-1-18　第25桂和ビル9F",
    "latitude": 43.0639734391,
    "longitude": 141.3515807718,
    "shop_id": "J003873173"
  },
  {
    "name": "おはこ 札幌本店",
    "address": "北海道札幌市中央区北２条西３-1-18　第25桂和ビル9F",
    "latitude": 43.0639734391,
    "longitude": 141.3515807718,
    "shop_id": "J003873174"
  },
  {
    "name": "金獅子のホルモン 北2条店",
    "address": "北海道札幌市中央区北２条西３丁目正門館ビル1F",
    "latitude": 43.0643164695,
    "longitude": 141.3520873708,
    "shop_id": "J000972910"
  },
  {
    "name": "美食ダイニング 四季舞 札幌駅前店",
    "address": "北海道札幌市中央区北２条西３丁目第２５桂和ビル４F",
    "latitude": 43.0639664945,
    "longitude": 141.3515521638,
    "shop_id": "J001040225"
  },
  {
    "name": "THE RED BAR",
    "address": "北海道札幌市中央区北２条西３丁目１－１８　第２５桂和ビルＢ１Ｆ",
    "latitude": 43.0639278846,
    "longitude": 141.3514441205,
    "shop_id": "J000957535"
  },
  {
    "name": "マジェスティック MAJESTIC 札幌",
    "address": "北海道札幌市中央区南１条西３丁目ｍ２サッポロビル地下1階",
    "latitude": 43.0593107364,
    "longitude": 141.3535514289,
    "shop_id": "J001000823"
  },
  {
    "name": "大人座 bub babys バブベイビーズ",
    "address": "北海道札幌市中央区南１条西１丁目3 板谷ビル 8階",
    "latitude": 43.0597132846,
    "longitude": 141.3565202968,
    "shop_id": "J003410031"
  },
  {
    "name": "はなび 北三条通り店 炭焼き",
    "address": "北海道札幌市中央区北３条西１丁目　リッチモンドホテル札幌駅前１Ｆ",
    "latitude": 43.0649675784,
    "longitude": 141.3544354476,
    "shop_id": "J000954952"
  },
  {
    "name": "ミアボッカ Mia Bocca 北2条店",
    "address": "北海道札幌市中央区北２条西３丁目１－２０　ＳＩＴＡＴＴＥＳＡＰＰＯＲＯ２Ｆ",
    "latitude": 43.0641664721,
    "longitude": 141.3516090908,
    "shop_id": "J001168521"
  },
  {
    "name": "大衆食堂 十勝居酒屋 一心",
    "address": "北海道札幌市中央区北２条西３‐１‐２０　フコク生命越山ビル　2Ｆ",
    "latitude": 43.064228964,
    "longitude": 141.3515915886,
    "shop_id": "J001216209"
  },
  {
    "name": "BistroBON tabloid table ビストロボン タブロイドテーブル",
    "address": "北海道札幌市中央区北２条西３丁目 札幌フコク生命越山ビル 1F/sitattesapporoビル 1F",
    "latitude": 43.064228964,
    "longitude": 141.3515915886,
    "shop_id": "J001196066"
  },
  {
    "name": "生ソーセージバル LECKER レッカー 札幌フコク生命ビル店",
    "address": "北海道札幌市中央区北２条西３丁目　札幌フコク生命越山ビル",
    "latitude": 43.0642125741,
    "longitude": 141.3515027089,
    "shop_id": "J001169153"
  },
  {
    "name": "The Summer BBQ Beer Garden ザ サマー バーベキュー ビアー ガーデン",
    "address": "北海道札幌市中央区南１条西３-3",
    "latitude": 43.0592301781,
    "longitude": 141.3531661916,
    "shop_id": "J003560351"
  },
  {
    "name": "祐一郎商店 札幌駅前通店",
    "address": "北海道札幌市中央区北２条西３丁目　札幌フコク生命越山ビル　2階",
    "latitude": 43.0642317375,
    "longitude": 141.3514715995,
    "shop_id": "J001168022"
  },
  {
    "name": "あいよ 札幌駅 北3条店",
    "address": "北海道札幌市中央区北３条西２丁目　STV北３条ビル１Ｆ",
    "latitude": 43.0650897684,
    "longitude": 141.3539046559,
    "shop_id": "J000762108"
  },
  {
    "name": "チャイニーズキッチン 紅龍",
    "address": "北海道札幌市中央区南１条西２丁目　南１条ＫビルＢ１Ｆ",
    "latitude": 43.059080523,
    "longitude": 141.3546632846,
    "shop_id": "J000026477"
  },
  {
    "name": "鶏バル HIGOYA ひごや 札幌店",
    "address": "北海道札幌市中央区南１条西２丁目　第5藤井ビル　B1F",
    "latitude": 43.0590841421,
    "longitude": 141.3549207606,
    "shop_id": "J001193916"
  },
  {
    "name": "BUDDYBUDDY バディバディ",
    "address": "北海道札幌市中央区北２条東１丁目２－３　パラダイスビル１・２Ｆ",
    "latitude": 43.064666853,
    "longitude": 141.3566185975,
    "shop_id": "J000636736"
  },
  {
    "name": "ヒリヒリ 大通 hirihiri OH! DoRi",
    "address": "北海道札幌市中央区南１条西２KビルB1F",
    "latitude": 43.0590374803,
    "longitude": 141.3548971545,
    "shop_id": "J000707411"
  },
  {
    "name": "海鮮 地酒 北前鮨",
    "address": "北海道札幌市中央区北３条西３丁目１－５　井門札幌北三条ビルＢ１Ｆ",
    "latitude": 43.0648069726,
    "longitude": 141.3523025989,
    "shop_id": "J001178167"
  },
  {
    "name": "BiBiN ビビン",
    "address": "北海道札幌市中央区北１条東１丁目6-8TOビル1階",
    "latitude": 43.0636961852,
    "longitude": 141.3580754664,
    "shop_id": "J003806152"
  },
  {
    "name": "海鮮炉端 根室 浜一番",
    "address": "北海道札幌市中央区北３条西２丁目アストリア札幌ビル２Ｆ",
    "latitude": 43.065024184,
    "longitude": 141.3527789305,
    "shop_id": "J000303295"
  },
  {
    "name": "函館海鮮居酒屋 新久 あらく",
    "address": "北海道札幌市中央区南１条西２丁目５ 南1条KビルB１F",
    "latitude": 43.0589499864,
    "longitude": 141.3547596725,
    "shop_id": "J001265588"
  },
  {
    "name": "居酒屋 水no色 札幌大通店",
    "address": "北海道札幌市中央区南１条西２-５ 南１条Ｋビル Ｂ１階",
    "latitude": 43.0589499864,
    "longitude": 141.3547596725,
    "shop_id": "J003341423"
  },
  {
    "name": "清水 kiyomizu 札幌大通店",
    "address": "北海道札幌市中央区南１条西２丁目５ 南一条Ｋビル B1",
    "latitude": 43.0589499864,
    "longitude": 141.3547596725,
    "shop_id": "J003389557"
  },
  {
    "name": "イタリアン YS O2 ワイエスオーツー",
    "address": "北海道札幌市中央区南１条西２丁目　南１条Ｋビル地下１階",
    "latitude": 43.0589499864,
    "longitude": 141.3547596725,
    "shop_id": "J003736137"
  },
  {
    "name": "閤 CUGURIDO",
    "address": "北海道札幌市中央区北２条西４丁目赤れんがテラス3F",
    "latitude": 43.0638884211,
    "longitude": 141.3507150236,
    "shop_id": "J001099961"
  },
  {
    "name": "ラ ブーシュリー ヴァンヌフ La Boucherie 29",
    "address": "北海道札幌市中央区南１条西１-１３－５ 小六ビル１Ｆ ",
    "latitude": 43.0594552731,
    "longitude": 141.3569077767,
    "shop_id": "J001223383"
  },
  {
    "name": "【個室完備】北海道海鮮居酒屋 いろりあん札幌駅前店",
    "address": "北海道札幌市中央区北３条西２丁目１-27 アストリア札幌ビル ５F",
    "latitude": 43.0651711112,
    "longitude": 141.3527966977,
    "shop_id": "J003474211"
  },
  {
    "name": "J.S. BURGERS CAFE 大同生命札幌ビル miredo店",
    "address": "北海道札幌市中央区北３条西３-1 大同生命札幌ビル 2F",
    "latitude": 43.0646389115,
    "longitude": 141.3515099045,
    "shop_id": "J001259115"
  },
  {
    "name": "蕎麦 立ち飲み 一味",
    "address": "北海道札幌市中央区北３条西１番地 大同生命ビルB１Fミレド内",
    "latitude": 43.0646597427,
    "longitude": 141.3515221244,
    "shop_id": "J001282936"
  },
  {
    "name": "月と太陽BREWING miredo店",
    "address": "北海道札幌市中央区北３条西３丁目１－１　大同生命札幌ビル(miredo) 1階",
    "latitude": 43.0646597427,
    "longitude": 141.3515221244,
    "shop_id": "J001285487"
  },
  {
    "name": "あいよ 産地直送 粋な居酒屋 北1条店",
    "address": "北海道札幌市中央区北１条西５－2　札幌興銀ビル１F",
    "latitude": 43.0615886735,
    "longitude": 141.3498913507,
    "shop_id": "J001219032"
  },
  {
    "name": "山本のハンバーグ 札幌miredo店",
    "address": "北海道札幌市中央区北３条西３丁目１　大同生命ビル１階",
    "latitude": 43.0646627971,
    "longitude": 141.351498793,
    "shop_id": "J003872709"
  },
  {
    "name": "天ぷら弥平",
    "address": "北海道札幌市中央区北３条西３丁目　大同生命札幌ビルmiredo　1階",
    "latitude": 43.0647005709,
    "longitude": 141.3515182334,
    "shop_id": "J001292264"
  },
  {
    "name": "パブリックスタジオTOMO トモ",
    "address": "北海道札幌市中央区南１条東２水協ビル B1F",
    "latitude": 43.0608862672,
    "longitude": 141.3586444736,
    "shop_id": "J003916797"
  },
  {
    "name": "福よし 札幌 中央 店 元祖 美唄 やきとり",
    "address": "北海道札幌市中央区北１条西５丁目興銀ビル１階",
    "latitude": 43.0615864497,
    "longitude": 141.3498360782,
    "shop_id": "J000707569"
  },
  {
    "name": "焼鳥 串カツ&飲み放題 たま 北3条店",
    "address": "北海道札幌市中央区北３条西２丁目　パールシティ札幌B1F",
    "latitude": 43.0652491547,
    "longitude": 141.3527180891,
    "shop_id": "J000697392"
  },
  {
    "name": "Fauteuil フォトゥイユ",
    "address": "北海道札幌市中央区南１条東２‐３‐２　マツヒロビル地下１階",
    "latitude": 43.0605068628,
    "longitude": 141.3584589583,
    "shop_id": "J003941813"
  },
  {
    "name": "海鮮居酒屋 蛇之助",
    "address": "北海道札幌市中央区北１条東２丁目5-11　大久保ビル1Ｆ",
    "latitude": 43.063586492,
    "longitude": 141.358557373,
    "shop_id": "J000725269"
  },
  {
    "name": "ヤマダホルモン",
    "address": "北海道札幌市中央区南１条西４丁目　S－１パーキングビル２Ｆ（道銀ビル仲通り）",
    "latitude": 43.0593587224,
    "longitude": 141.3515999396,
    "shop_id": "J000722378"
  },
  {
    "name": "アットプレイス 南2条店",
    "address": "北海道札幌市中央区南２条西１丁目７－１",
    "latitude": 43.0588969772,
    "longitude": 141.3559778965,
    "shop_id": "J000707567"
  },
  {
    "name": "YAKINIKUBAR TAMURA 焼肉バル田村 赤れんがテラス店",
    "address": "北海道札幌市中央区北２条西４丁目１番地　札幌三井ＪＰビルディング　３階",
    "latitude": 43.0638892432,
    "longitude": 141.3503747772,
    "shop_id": "J001283830"
  },
  {
    "name": "リアルタイペイ PARCO店",
    "address": "北海道札幌市中央区南１条西３丁目　札幌パルコ 8F",
    "latitude": 43.0587699562,
    "longitude": 141.3531656641,
    "shop_id": "J003851558"
  },
  {
    "name": "海鮮居酒屋 一松 魚力",
    "address": "北海道札幌市中央区大通西４丁目１　新大通ビルＢ２Ｆ",
    "latitude": 43.0597503188,
    "longitude": 141.3509058132,
    "shop_id": "J000028125"
  },
  {
    "name": "鶴雅 ビュッフェダイニング Buffet Dining 札幌",
    "address": "北海道札幌市中央区北２条西４丁目１番地　札幌三井ＪＰビルディング　赤レンガテラス2階",
    "latitude": 43.0639364591,
    "longitude": 141.350357276,
    "shop_id": "J001100014"
  },
  {
    "name": "クゥー Coeur",
    "address": "北海道札幌市中央区南１条西３丁目　ＰＡＲＣＯ８Ｆ",
    "latitude": 43.0587721726,
    "longitude": 141.3529962351,
    "shop_id": "J000717949"
  },
  {
    "name": "プティサレ",
    "address": "北海道札幌市中央区北２条西４丁目1番地赤れんがテラス　1F",
    "latitude": 43.0638631319,
    "longitude": 141.3502728438,
    "shop_id": "J001232570"
  },
  {
    "name": "釧路ふく亭 櫂梯楼 札幌パルコ店",
    "address": "北海道札幌市中央区南１条西３丁目札幌パルコ8Fダイニングパレット",
    "latitude": 43.0587341251,
    "longitude": 141.35310095,
    "shop_id": "J000789146"
  },
  {
    "name": "タイガーカレー 赤れんがテラス店",
    "address": "北海道札幌市中央区北２条西４丁目1　赤れんがテラス　3F",
    "latitude": 43.063892017,
    "longitude": 141.3502625652,
    "shop_id": "J001279505"
  },
  {
    "name": "CAFE&BAR Manhattan カフェ&バー マンハッタン",
    "address": "北海道札幌市中央区北２条西４丁目－１　赤れんがテラス　２階",
    "latitude": 43.063892017,
    "longitude": 141.3502625652,
    "shop_id": "J003324757"
  },
  {
    "name": "PariRu",
    "address": "北海道札幌市中央区北２条西４丁目一 赤レンガテラス2階",
    "latitude": 43.063892017,
    "longitude": 141.3502625652,
    "shop_id": "J003629011"
  },
  {
    "name": "牛たん炭焼 利久 赤れんが テラス店",
    "address": "北海道札幌市中央区北２条西４‐１ 赤れんがテラス 3F",
    "latitude": 43.063892017,
    "longitude": 141.3502625652,
    "shop_id": "J003851197"
  },
  {
    "name": "レストランMINAMI",
    "address": "北海道札幌市中央区北2条西4丁目1番地 赤れんがテラス 4F",
    "latitude": 43.063892017,
    "longitude": 141.3502625652,
    "shop_id": "J003851862"
  },
  {
    "name": "北一 キタイチ",
    "address": "北海道札幌市中央区北３条西２-8さっけんビルB1Ｆ",
    "latitude": 43.0656224772,
    "longitude": 141.3537729689,
    "shop_id": "J001262519"
  },
  {
    "name": "個室大衆酒場 KITAICHI",
    "address": "北海道札幌市中央区北３条西２-8さっけんビルB1Ｆ",
    "latitude": 43.0656224772,
    "longitude": 141.3537729689,
    "shop_id": "J001262520"
  },
  {
    "name": "幸せのパンケーキ 札幌店",
    "address": "北海道札幌市中央区南１条西４丁目15-1  第21ビッグビル2階",
    "latitude": 43.0591209769,
    "longitude": 141.3517043888,
    "shop_id": "J001262787"
  },
  {
    "name": "ねぎま 別邸",
    "address": "北海道札幌市中央区南１条西４丁目　第40ビックビル2F",
    "latitude": 43.0590718175,
    "longitude": 141.3517463324,
    "shop_id": "J001050542"
  },
  {
    "name": "うさぎカフェ monlapin",
    "address": "北海道札幌市中央区南１条西１丁目15番地　丸美ビル1階",
    "latitude": 43.0590917122,
    "longitude": 141.3570941704,
    "shop_id": "J001052279"
  },
  {
    "name": "大衆酒場 富士山 札幌大通本店",
    "address": "北海道札幌市中央区南2条西3-11-1　k-23ビル　2階",
    "latitude": 43.0585041813,
    "longitude": 141.3539661618,
    "shop_id": "J001217191"
  },
  {
    "name": "エノテカ ドォーロ 札幌店",
    "address": "北海道札幌市中央区北２条西４丁目1番地赤れんがテラス3F",
    "latitude": 43.0640386644,
    "longitude": 141.3502200602,
    "shop_id": "J001223584"
  },
  {
    "name": "海へ 北3条店",
    "address": "北海道札幌市中央区北３条西３丁目　マルゲンビル１Ｆ",
    "latitude": 43.0653691237,
    "longitude": 141.352215906,
    "shop_id": "J000660697"
  },
  {
    "name": "ナナズグリーンティー Nana's Green Tea 札幌パルコ店",
    "address": "北海道札幌市中央区南１条西３丁目３パルコ5F",
    "latitude": 43.0586341282,
    "longitude": 141.3528248705,
    "shop_id": "J000999352"
  },
  {
    "name": "塩ホルモン712 大通り本店",
    "address": "北海道札幌市中央区南１条西４-15-1　ビッグ21ビル4F",
    "latitude": 43.0590240446,
    "longitude": 141.3517157826,
    "shop_id": "J001194997"
  },
  {
    "name": "ひゃくや 大通南１条店",
    "address": "北海道札幌市中央区南１条西４丁目16-1 南舘ビル２Ｆ",
    "latitude": 43.0590584815,
    "longitude": 141.3516127344,
    "shop_id": "J001176935"
  },
  {
    "name": "DARTS BAR D.D",
    "address": "北海道札幌市中央区北３条西２丁目　エナビル７F",
    "latitude": 43.0657071816,
    "longitude": 141.3535449293,
    "shop_id": "J000925591"
  },
  {
    "name": "カラオケ歌屋 札幌北３条店",
    "address": "北海道札幌市中央区北３条西２丁目　",
    "latitude": 43.06572218,
    "longitude": 141.3535510389,
    "shop_id": "J000027795"
  },
  {
    "name": "海鮮個室酒場 伊まり 大通駅前店",
    "address": "北海道札幌市中央区南１条西４丁目16-1 南舘ビル3F",
    "latitude": 43.0590279297,
    "longitude": 141.3516155138,
    "shop_id": "J001187513"
  },
  {
    "name": "cheers チアーズ",
    "address": "北海道札幌市中央区北３条西２-8 さっけんビルB1F",
    "latitude": 43.0657521841,
    "longitude": 141.3537876819,
    "shop_id": "J001262521"
  },
  {
    "name": "串鳥 三番街店",
    "address": "北海道札幌市中央区南２条西３丁目澤田ビルB1F",
    "latitude": 43.0584203043,
    "longitude": 141.3540183843,
    "shop_id": "J003851786"
  },
  {
    "name": "北の炉端ちゃこ",
    "address": "北海道札幌市中央区北３条西２-１ＮＣ北専北３条ビルB１",
    "latitude": 43.0656330041,
    "longitude": 141.3529377677,
    "shop_id": "J001193741"
  },
  {
    "name": "ALL DAY DINING MEM オールデイダイニングメム",
    "address": "北海道札幌市中央区北３条西１－２－９　ANAクラウンプラザホテル札幌2F",
    "latitude": 43.0657555646,
    "longitude": 141.3552408808,
    "shop_id": "J000660837"
  },
  {
    "name": "シネマカフェ",
    "address": "北海道札幌市中央区南２条西２丁目　富樫ビルB１",
    "latitude": 43.0585017355,
    "longitude": 141.3556151763,
    "shop_id": "J000835513"
  },
  {
    "name": "松尾ジンギスカン 札幌大通南1条店",
    "address": "北海道札幌市中央区南１条西４丁目１６－１　南舘ビル１Ｆ",
    "latitude": 43.0589943209,
    "longitude": 141.3515616319,
    "shop_id": "J000631388"
  },
  {
    "name": "Cafe CARO",
    "address": "北海道札幌市中央区北３条西２丁目１番地ＮＣ北専北３条ビル２Ｆ",
    "latitude": 43.0656324447,
    "longitude": 141.3528180566,
    "shop_id": "J001145026"
  },
  {
    "name": "炭火居酒屋 炎 札幌駅前 北3条店",
    "address": "北海道札幌市中央区北３条西２丁目８-３エナビル１階",
    "latitude": 43.0657755067,
    "longitude": 141.3535454807,
    "shop_id": "J000981454"
  },
  {
    "name": "ラ カサブランカ LA・CASABLANCA",
    "address": "北海道札幌市中央区北３条西２丁目1番地ＮＣ北専北3条ビル２Ｆ",
    "latitude": 43.0656579972,
    "longitude": 141.352818055,
    "shop_id": "J001145024"
  },
  {
    "name": "チロリン村 南2条店",
    "address": "北海道札幌市中央区南２条西２丁目　今井ビル　Ｂ１Ｆ",
    "latitude": 43.0584053472,
    "longitude": 141.3552754913,
    "shop_id": "J001187118"
  },
  {
    "name": "restaurant＆cafebar BOND",
    "address": "北海道札幌市中央区南２条西３丁目11-4　ティアラ・ドゥビル地下1階",
    "latitude": 43.0583500351,
    "longitude": 141.3540211661,
    "shop_id": "J003784822"
  },
  {
    "name": "リゾッテリア ガク ビス Risotteria GAKU bis",
    "address": "北海道札幌市中央区南２条西２丁目11-5　札幌ＮＳビル２Ｆ",
    "latitude": 43.0583675684,
    "longitude": 141.355102454,
    "shop_id": "J000724359"
  },
  {
    "name": "包丁人 よしのり",
    "address": "北海道札幌市中央区南２条西２丁目11-5札幌NSビル2F",
    "latitude": 43.0583759015,
    "longitude": 141.3551274512,
    "shop_id": "J000765175"
  },
  {
    "name": "札幌かに本家 札幌駅前本店",
    "address": "北海道札幌市中央区北３条西２丁目１－１８ ",
    "latitude": 43.0656268805,
    "longitude": 141.35253225,
    "shop_id": "J000100314"
  },
  {
    "name": "炭火焼サムギョプサル専門店 やさい村大地 札幌大通店",
    "address": "北海道札幌市中央区南２条西２丁目NSビルB1F",
    "latitude": 43.0583475737,
    "longitude": 141.3551921692,
    "shop_id": "J001231410"
  },
  {
    "name": "鮨処 凜",
    "address": "北海道札幌市中央区北３条西１-2-9 ANAクラウンプラザホテル札幌 B1F",
    "latitude": 43.0658269465,
    "longitude": 141.3552942048,
    "shop_id": "J003762401"
  },
  {
    "name": "吉山商店 創成橋店",
    "address": "北海道札幌市中央区南１条東２丁目１－３　和興ビル　１F",
    "latitude": 43.0600227645,
    "longitude": 141.3587514607,
    "shop_id": "J000853384"
  },
  {
    "name": "しゃぶしゃぶ れたす 札幌駅前",
    "address": "北海道札幌市中央区北3条西4丁目　日本生命ビルB１F",
    "latitude": 43.0647452581,
    "longitude": 141.35061137,
    "shop_id": "J001194264"
  },
  {
    "name": "だし劇場 まるさんかくしかく 札幌総本店",
    "address": "北海道札幌市中央区北３条西２-1-13 ＮＣ北専北3条ビル B1",
    "latitude": 43.0657457657,
    "longitude": 141.3528611013,
    "shop_id": "J003366714"
  },
  {
    "name": "珈琲&ウイスキー バルデラマ produce by bloc",
    "address": "北海道札幌市中央区南２条西３-11-5 フェス札幌4F",
    "latitude": 43.0582603267,
    "longitude": 141.354109219,
    "shop_id": "J001281365"
  },
  {
    "name": "卓上レモンサワー飲み放題 焼肉ホルモンたけ田 札幌駅前店",
    "address": "北海道札幌市中央区北３条西３－１－４１　 N・北3西3ビル　B1",
    "latitude": 43.0655902062,
    "longitude": 141.3521628419,
    "shop_id": "J001280320"
  },
  {
    "name": "おでんとさかな せろり 札幌大通店",
    "address": "北海道札幌市中央区南２条西３丁目11-5 Fes札幌 B1F",
    "latitude": 43.0582433825,
    "longitude": 141.3540539473,
    "shop_id": "J003829677"
  },
  {
    "name": "ラウンジ フェリース LOUNGE FELIZ",
    "address": "北海道札幌市中央区南２条西３丁目　フェス札幌６Ｆ",
    "latitude": 43.0582306056,
    "longitude": 141.35403395,
    "shop_id": "J000768704"
  },
  {
    "name": "チャイニーズダイニングリョウ",
    "address": "北海道札幌市中央区南１条西４丁目４－１ GARDENSCABIN2F",
    "latitude": 43.0586874234,
    "longitude": 141.3518560678,
    "shop_id": "J003559516"
  },
  {
    "name": "和酒場うつけ",
    "address": "北海道札幌市中央区南２条東１　M's EAST1F",
    "latitude": 43.0593342165,
    "longitude": 141.3581243383,
    "shop_id": "J000809186"
  },
  {
    "name": "Tap Room BEER KOTAN",
    "address": "北海道札幌市中央区南２条西３丁目十三の二 パレードビル三階",
    "latitude": 43.058268081,
    "longitude": 141.3534198378,
    "shop_id": "J001265043"
  },
  {
    "name": "鈴木徳太郎商店",
    "address": "北海道札幌市中央区大通東２丁目15-1",
    "latitude": 43.0621486494,
    "longitude": 141.3597304076,
    "shop_id": "J000636491"
  },
  {
    "name": "サントリー ザ プレミアムモルツ大通ビアガーデン",
    "address": "北海道札幌市中央区大通西５大通公園内",
    "latitude": 43.0601582862,
    "longitude": 141.3497247864,
    "shop_id": "J003559667"
  },
  {
    "name": "北海道海鮮居酒屋さぶろう 別邸",
    "address": "北海道札幌市中央区南２条西１-1-5 2F",
    "latitude": 43.0585573226,
    "longitude": 141.3567864536,
    "shop_id": "J003582301"
  },
  {
    "name": "札幌ジンギスカン ori成 おりじん",
    "address": "北海道札幌市中央区南２条西３丁目１１－８　二条小町　２F・３F",
    "latitude": 43.0581442281,
    "longitude": 141.3540603417,
    "shop_id": "J003942529"
  },
  {
    "name": "sake 成田屋",
    "address": "北海道札幌市中央区南２条東２丁目８番地１大都ビルB1F",
    "latitude": 43.059602533,
    "longitude": 141.3586078884,
    "shop_id": "J003872910"
  },
  {
    "name": "CAFE&RESTAURANT ORGALI オーガリ",
    "address": "北海道札幌市中央区大通東２丁目15-1　サラサビル１F",
    "latitude": 43.0621086572,
    "longitude": 141.3598206795,
    "shop_id": "J001194396"
  },
  {
    "name": "ビストロ Dining 我が家",
    "address": "北海道札幌市中央区南２条西３丁目13-4 カタオカビルB1",
    "latitude": 43.0581478209,
    "longitude": 141.3535142808,
    "shop_id": "J001222417"
  },
  {
    "name": "sake bar 成田屋",
    "address": "北海道札幌市中央区南２条東２丁目９－６ 地下1階 大都ビル",
    "latitude": 43.0596167002,
    "longitude": 141.3586770478,
    "shop_id": "J003411011"
  },
  {
    "name": "スープカレー GARAKU ガラク",
    "address": "北海道札幌市中央区南２条西２丁目おくむらビルB１F",
    "latitude": 43.0580751031,
    "longitude": 141.3550794184,
    "shop_id": "J000697432"
  },
  {
    "name": "酒肴日和 アテニヨル",
    "address": "北海道札幌市中央区北３条西４－１　日本生命札幌ビル地下１階",
    "latitude": 43.0649680035,
    "longitude": 141.3504497047,
    "shop_id": "J001143138"
  },
  {
    "name": "鮨処焼処 魚一心 さっぽろ東急百貨店",
    "address": "北海道札幌市中央区北４条西２－１　札幌東急百貨店10F",
    "latitude": 43.0660193403,
    "longitude": 141.3527605384,
    "shop_id": "J000835629"
  },
  {
    "name": "焼肉徳寿 k-place店",
    "address": "北海道札幌市中央区北４条西２カメイ札幌駅前ビル10F",
    "latitude": 43.0661568522,
    "longitude": 141.3536346159,
    "shop_id": "J000717246"
  },
  {
    "name": "くまちゃん温泉 札幌本館",
    "address": "北海道札幌市中央区南２条東１-1-5",
    "latitude": 43.0590014768,
    "longitude": 141.358054365,
    "shop_id": "J003763616"
  },
  {
    "name": "全席個室 じぶんどき 札幌駅前店",
    "address": "北海道札幌市中央区北４条西２丁目１－１　カメイ札幌ビルＢ１Ｆ　受付Ｂ１Ｆ",
    "latitude": 43.0661568522,
    "longitude": 141.3536346159,
    "shop_id": "J003806947"
  },
  {
    "name": "大衆アラカルト ギャルソン",
    "address": "北海道札幌市中央区南１条西４藤井ビル２Ｆ",
    "latitude": 43.0586654594,
    "longitude": 141.3511766875,
    "shop_id": "J001227258"
  },
  {
    "name": "北海道食市場 丸海屋 日本生命札幌ビル店",
    "address": "北海道札幌市中央区北３条西４－１－１ 日本生命札幌ビル１階",
    "latitude": 43.0644841493,
    "longitude": 141.3497120245,
    "shop_id": "J000678671"
  },
  {
    "name": "鉄板居酒屋 とんぼ食堂",
    "address": "北海道札幌市中央区北海道札幌市中央区北４条西１丁目　北農ビル　B1F ",
    "latitude": 43.066253247,
    "longitude": 141.3541737269,
    "shop_id": "J001146397"
  },
  {
    "name": "中国料理 青島飯店",
    "address": "北海道札幌市中央区南１条東２丁目サンシティビル1階",
    "latitude": 43.0601319391,
    "longitude": 141.3593994498,
    "shop_id": "J001203344"
  },
  {
    "name": "いきなり!ステーキ 札幌南店",
    "address": "北海道札幌市中央区南１条西４-8 フジイビル1F",
    "latitude": 43.0586740676,
    "longitude": 141.35111947,
    "shop_id": "J001196109"
  },
  {
    "name": "焼鳥 富士山 狸小路店",
    "address": "北海道札幌市中央区南２条西２丁目４－１狸COMICHI２階",
    "latitude": 43.0579829004,
    "longitude": 141.3553332894,
    "shop_id": "J003341064"
  },
  {
    "name": "しゃぶしゃぶ すき焼 禅 札幌",
    "address": "北海道札幌市中央区南２条西１丁目　山口中央ビル地下１Ｆ",
    "latitude": 43.0581756901,
    "longitude": 141.3564123447,
    "shop_id": "J000026908"
  },
  {
    "name": "海鮮居酒屋 とれたて北海道 札幌駅前店",
    "address": "北海道札幌市中央区北４条西１丁目　北農ビルB1F",
    "latitude": 43.0662954658,
    "longitude": 141.3542262195,
    "shop_id": "J000653511"
  },
  {
    "name": "ろく六",
    "address": "北海道札幌市中央区南２条西１丁目７番地８　山口中央ビル３F",
    "latitude": 43.0581481936,
    "longitude": 141.3564190124,
    "shop_id": "J001009241"
  },
  {
    "name": "スープカレー TREASURE",
    "address": "北海道札幌市中央区南２条西１丁目８－２ アスカビル1階 ",
    "latitude": 43.0582665275,
    "longitude": 141.3568745187,
    "shop_id": "J001265033"
  },
  {
    "name": "THE 4th PLACE ザ フォース プレイス",
    "address": "北海道札幌市中央区南２条西３丁目1-7MODAビル7F",
    "latitude": 43.05785287,
    "longitude": 141.3539195391,
    "shop_id": "J001249271"
  },
  {
    "name": "平塚ジンギスカン",
    "address": "北海道札幌市中央区南１条西４-８ NKC-1-4ビル 1F",
    "latitude": 43.0585165901,
    "longitude": 141.3512233589,
    "shop_id": "J003582142"
  },
  {
    "name": "焼鳥 串カツ&飲み放題 たま南1条店",
    "address": "北海道札幌市中央区南１条西４丁目　ＮＫＣ１－４ビル　２Ｆ",
    "latitude": 43.0585288088,
    "longitude": 141.3511603084,
    "shop_id": "J001028221"
  },
  {
    "name": "咲か蔵 さかぐら 南一条店",
    "address": "北海道札幌市中央区南１条西５丁目16プレジデント松井ビル２F",
    "latitude": 43.058959565,
    "longitude": 141.3504011857,
    "shop_id": "J000954972"
  },
  {
    "name": "徳ちゃん 南一条店",
    "address": "北海道札幌市中央区南１条西４丁目８　NKC １-４ビル　１F",
    "latitude": 43.058536307,
    "longitude": 141.3511336438,
    "shop_id": "J001126851"
  },
  {
    "name": "平塚ジンギスカン by焼肉たんか",
    "address": "北海道札幌市中央区南１条西４丁目８ NKC-1-4ビル 1F",
    "latitude": 43.0584865932,
    "longitude": 141.3512058623,
    "shop_id": "J003851556"
  },
  {
    "name": "山の猿 南1条店",
    "address": "北海道札幌市中央区南１条西４丁目　ＮＫＣ１・４ビル２Ｆ",
    "latitude": 43.0585065889,
    "longitude": 141.3511486442,
    "shop_id": "J000677669"
  },
  {
    "name": "エゾバルバンバン EZOBARU BANG!BANG! 大通店",
    "address": "北海道札幌市中央区南２条西３丁目1－2三番街ビルB1F",
    "latitude": 43.0578037163,
    "longitude": 141.3541331334,
    "shop_id": "J001108656"
  },
  {
    "name": "野菜とフレンチ le coffret ル コフレ",
    "address": "北海道札幌市中央区北３条西４日本生命ビル２F",
    "latitude": 43.0648352222,
    "longitude": 141.3498472685,
    "shop_id": "J001193063"
  },
  {
    "name": "十勝豚丼いっぴん ニッセイビル店",
    "address": "北海道札幌市中央区北３条西４丁目1-1　日本生命ビル　B1F　",
    "latitude": 43.0648652198,
    "longitude": 141.3498864297,
    "shop_id": "J003388106"
  },
  {
    "name": "プロント日本生命札幌ビル店",
    "address": "北海道札幌市中央区北3条西4丁目1番地1",
    "latitude": 43.0648282782,
    "longitude": 141.349836992,
    "shop_id": "J003942295"
  },
  {
    "name": "FOREST DINER フォレストダイナー 札幌店",
    "address": "北海道札幌市中央区北３条西４丁目１　D-LIFEPLACE 札幌1F　受付１Ｆ",
    "latitude": 43.0652654651,
    "longitude": 141.3503788598,
    "shop_id": "J003649220"
  },
  {
    "name": "北の旬鮮処 ねぎま",
    "address": "北海道札幌市中央区南１条西５丁目　KAGA１．５ビル　５F",
    "latitude": 43.0586479492,
    "longitude": 141.35080089,
    "shop_id": "J000026087"
  },
  {
    "name": "路地裏酒場 おかえり",
    "address": "北海道札幌市中央区南２条西１丁目6-1 第三広和ビル2階",
    "latitude": 43.0580212627,
    "longitude": 141.3563612477,
    "shop_id": "J003449005"
  },
  {
    "name": "サッポロチーズハウス メロ Sapporo Cheese House Mero",
    "address": "北海道札幌市中央区南２条西１丁目　第５広和ビル１Ｆ",
    "latitude": 43.0580209852,
    "longitude": 141.3563693025,
    "shop_id": "J001147377"
  },
  {
    "name": "TSUKI CAFE sapporo ツキカフェサッポロ",
    "address": "北海道札幌市中央区南１条西４丁目７－２四丁目会館１F",
    "latitude": 43.0583446731,
    "longitude": 141.3514247396,
    "shop_id": "J003893729"
  },
  {
    "name": "炭鉱ホルモン 欽ちゃん 本店",
    "address": "北海道札幌市中央区南２条西１丁目第五広和ビル2F",
    "latitude": 43.0579959867,
    "longitude": 141.3563229194,
    "shop_id": "J000716131"
  },
  {
    "name": "創作和食と酒 彩人 いろり",
    "address": "北海道札幌市中央区大通西５-8番地　昭和ビルB1",
    "latitude": 43.0595597421,
    "longitude": 141.34955095,
    "shop_id": "J001251253"
  },
  {
    "name": "西ノ門桜亭",
    "address": "北海道札幌市中央区大通西５丁目８ 地下1F 昭和ビル",
    "latitude": 43.0595597421,
    "longitude": 141.34955095,
    "shop_id": "J003410744"
  },
  {
    "name": "やきとり番長 札幌大通り店",
    "address": "北海道札幌市中央区大通西５丁目8　昭和ビルB1F",
    "latitude": 43.0595597421,
    "longitude": 141.34955095,
    "shop_id": "J003872289"
  },
  {
    "name": "金賞からあげ",
    "address": "北海道札幌市中央区南１条西４丁目NKC１－４ビル１F",
    "latitude": 43.0583843853,
    "longitude": 141.351265863,
    "shop_id": "J001225098"
  },
  {
    "name": "餃子とカレーザンギの店 点心札幌 大通本店",
    "address": "北海道札幌市中央区南１条西４丁目８番地 ＮＫＣ１－４ビル１階",
    "latitude": 43.0583821635,
    "longitude": 141.3512689184,
    "shop_id": "J003389458"
  },
  {
    "name": "ラーメン山岡家 南2条店",
    "address": "北海道札幌市中央区南２条西１丁目６－１",
    "latitude": 43.0579459886,
    "longitude": 141.35619349,
    "shop_id": "J000250430"
  },
  {
    "name": "炭火焼 肉串焼 マルハチ ポパイ",
    "address": "北海道札幌市中央区南１条西４丁目　4丁目会館ビル1Ｆ",
    "latitude": 43.0583341158,
    "longitude": 141.3513305823,
    "shop_id": "J001245544"
  },
  {
    "name": "Osteria Arcobaleno オステリア アルコバレーノ",
    "address": "北海道札幌市中央区南２条西１丁目６－１１ 第３広和ビル・イースト 2F",
    "latitude": 43.0580526579,
    "longitude": 141.3566698284,
    "shop_id": "J003433026"
  },
  {
    "name": "麻布茶房 さっぽろ東急店",
    "address": "北海道札幌市中央区北４条西２-１さっぽろ東急百貨店10F",
    "latitude": 43.0663929199,
    "longitude": 141.3531835321,
    "shop_id": "J001251481"
  },
  {
    "name": "寿し処 おたる亭弥助 狸小路店",
    "address": "北海道札幌市中央区南２条西２丁目４－１　狸COMICHI １Ｆ",
    "latitude": 43.0577770939,
    "longitude": 141.3553896856,
    "shop_id": "J003324710"
  },
  {
    "name": "炉ばた 燻製 炉 あぺおい ",
    "address": "北海道札幌市中央区南２条西２丁目４-１　狸COMICHI2階",
    "latitude": 43.0577770939,
    "longitude": 141.3553896856,
    "shop_id": "J003341224"
  },
  {
    "name": "蝦夷前そばと豚丼 北堂 狸COMICHI店",
    "address": "北海道札幌市中央区南２条西２丁目４-１狸COMICHI店",
    "latitude": 43.0577770939,
    "longitude": 141.3553896856,
    "shop_id": "J003341225"
  },
  {
    "name": "鉄板酒飯処小樽モスケ焼き 狸COMICHI店",
    "address": "北海道札幌市中央区南２条西２丁目５　狸COMICHI １F",
    "latitude": 43.0577690377,
    "longitude": 141.3553396907,
    "shop_id": "J003763225"
  },
  {
    "name": "大衆酒場 狸の休日",
    "address": "北海道札幌市中央区南２条西２丁目５　狸COMICHI",
    "latitude": 43.0577682042,
    "longitude": 141.3553321915,
    "shop_id": "J003872528"
  },
  {
    "name": "コリアンライダー",
    "address": "北海道札幌市中央区南２条西２-5 狸COMICHI 1F",
    "latitude": 43.057755704,
    "longitude": 141.3552791416,
    "shop_id": "J003828617"
  },
  {
    "name": "松尾ジンギスカン 札幌駅前店",
    "address": "北海道札幌市中央区北３条西４丁目１－１　日本生命札幌ビルＢ１Ｆ",
    "latitude": 43.065008257,
    "longitude": 141.3498553127,
    "shop_id": "J000764038"
  },
  {
    "name": "British Pub Darwin ダーウィン 日本生命ビル店",
    "address": "北海道札幌市中央区北３条西４丁目１－１ 日本生命札幌ビル B1F",
    "latitude": 43.065008257,
    "longitude": 141.3498553127,
    "shop_id": "J001099291"
  },
  {
    "name": "寿司の福家",
    "address": "北海道札幌市中央区南１条西５ヘルシー南1条ビルB1",
    "latitude": 43.0585599031,
    "longitude": 141.35076201,
    "shop_id": "J000621939"
  },
  {
    "name": "ビヤホール ライオン 狸小路店",
    "address": "北海道札幌市中央区南２条西２－７　サッポロビル　１階",
    "latitude": 43.057691808,
    "longitude": 141.3548227987,
    "shop_id": "J000028268"
  },
  {
    "name": "焼肉ライク 札幌狸小路店",
    "address": "北海道札幌市中央区南２条西２-2-11",
    "latitude": 43.0577834946,
    "longitude": 141.3557743719,
    "shop_id": "J001268716"
  },
  {
    "name": "チェゴヤ 札幌東急店",
    "address": "北海道札幌市中央区北４条西２さっぽろ東急百貨店１０階",
    "latitude": 43.0664351349,
    "longitude": 141.3531218686,
    "shop_id": "J000712123"
  },
  {
    "name": "東急ビアガーデン2階テラス プレミアムリゾート",
    "address": "北海道札幌市中央区北４条西２丁目２F　南口テラス",
    "latitude": 43.066382631,
    "longitude": 141.3528074564,
    "shop_id": "J001119420"
  },
  {
    "name": "たこ焼バー うツボ 2条店",
    "address": "北海道札幌市中央区南２条東１-1-6 M‘s二条横丁2F",
    "latitude": 43.0587970698,
    "longitude": 141.3584401751,
    "shop_id": "J001262941"
  },
  {
    "name": "北海道肉巻き 捌格",
    "address": "北海道札幌市中央区南２条西２丁目５　狸COMICHI ２F",
    "latitude": 43.0577034884,
    "longitude": 141.3552871996,
    "shop_id": "J003872529"
  },
  {
    "name": "スパイスと料理を楽しめるお店 Cafe depice カフェ デ スパイス",
    "address": "北海道札幌市中央区南２条東１-1-6 M's2条横丁1F",
    "latitude": 43.058727354,
    "longitude": 141.3583785184,
    "shop_id": "J001278045"
  },
  {
    "name": "彩ノ匠",
    "address": "北海道札幌市中央区南２条西２-5 狸COMICHI 1F",
    "latitude": 43.0576912689,
    "longitude": 141.3553249746,
    "shop_id": "J003410493"
  },
  {
    "name": "ランチョ エルパソ 狸COMICHI店",
    "address": "北海道札幌市中央区南２条西２丁目５　狸COMICHI店",
    "latitude": 43.0576912689,
    "longitude": 141.3553249746,
    "shop_id": "J003432107"
  },
  {
    "name": "炭火焼肉 ジンギスカン 狸小路やまごや",
    "address": "北海道札幌市中央区南２条西２丁目（狸小路２丁目）　サッポロライオンビルB1F",
    "latitude": 43.0576457026,
    "longitude": 141.3548269678,
    "shop_id": "J000030791"
  },
  {
    "name": "マカリ亭",
    "address": "北海道札幌市中央区南２条西４-12-4-23 OYOYO VALLEY 2F",
    "latitude": 43.0581758052,
    "longitude": 141.3514383598,
    "shop_id": "J001283312"
  },
  {
    "name": "梅酒 焼酎だいにんぐ かくれんぼ",
    "address": "北海道札幌市中央区南２条西１丁目９－６　１F",
    "latitude": 43.0581479439,
    "longitude": 141.3572753222,
    "shop_id": "J000728152"
  },
  {
    "name": "炭火焼鳥 雅",
    "address": "北海道札幌市中央区南２条東１ エムズイースト2F",
    "latitude": 43.058765686,
    "longitude": 141.3584782291,
    "shop_id": "J001278069"
  },
  {
    "name": "黒花火 本店",
    "address": "北海道札幌市中央区南２条西４丁目OYOYOVALLEY ２F",
    "latitude": 43.0581930209,
    "longitude": 141.3513042044,
    "shop_id": "J001054143"
  },
  {
    "name": "中華バル　唐韻　モユクサッポロ店",
    "address": "北海道札幌市中央区南２条西３－20 モユクサッポロ　B2F",
    "latitude": 43.0576451027,
    "longitude": 141.3534701488,
    "shop_id": "J003625130"
  },
  {
    "name": "ルースロウ RUTH LOWE 東急店",
    "address": "北海道札幌市中央区北４条西２丁目　東急百貨店10F",
    "latitude": 43.0664526163,
    "longitude": 141.3526180252,
    "shop_id": "J000748102"
  },
  {
    "name": "Northern Food Design TAKU ノーザンフードデザイン タク",
    "address": "北海道札幌市中央区南２条西１丁目第３広和ビル３Ｆ",
    "latitude": 43.0578562897,
    "longitude": 141.3565751269,
    "shop_id": "J000696808"
  },
  {
    "name": "二条かに市場 マルダイ水産",
    "address": "北海道札幌市中央区南３条東１-8",
    "latitude": 43.0584704335,
    "longitude": 141.3581566101,
    "shop_id": "J001266445"
  },
  {
    "name": "ミニPizzaと西洋料理 unnoe アンノーエ",
    "address": "北海道札幌市中央区南２条西１-5-1 広和ビル3F",
    "latitude": 43.0578668474,
    "longitude": 141.3566790055,
    "shop_id": "J001284929"
  },
  {
    "name": "札幌東急屋上ビアガーデン NU AiR THE ROOF TOP of SAPPORO",
    "address": "北海道札幌市中央区北４条西２東急百貨店",
    "latitude": 43.0664892794,
    "longitude": 141.3526441316,
    "shop_id": "J001273822"
  },
  {
    "name": "美唄焼鳥 惣菜 炎 en さっぽろ東急店",
    "address": "北海道札幌市中央区北４条西２丁目１　さっぽろ東急百貨店B1F",
    "latitude": 43.0664892794,
    "longitude": 141.3526441316,
    "shop_id": "J003943108"
  },
  {
    "name": "BARRA ITALIANA Le Varo モユクサッポロ店",
    "address": "北海道札幌市中央区南2条西3-20モユクサッポロB2F",
    "latitude": 43.0575817695,
    "longitude": 141.3532385074,
    "shop_id": "J003872175"
  },
  {
    "name": "BEER BAR THE SAPPORO STARS モユクサッポロ店",
    "address": "北海道札幌市中央区南２条西３丁目20番地　moyuku SAPPORO B2階",
    "latitude": 43.0575678795,
    "longitude": 141.3531532383,
    "shop_id": "J003560391"
  },
  {
    "name": "CAFE LOUNGE mosuKe カフェラウンジモスケ",
    "address": "北海道札幌市中央区南２条西３丁目２０番地　moyuk sapporo B1F",
    "latitude": 43.0575678795,
    "longitude": 141.3531532383,
    "shop_id": "J003806106"
  },
  {
    "name": "ハイボールバー 札幌1923 大通店",
    "address": "北海道札幌市中央区南２条西４丁目　桂和ＭＴビル　１Ｆ　（ピヴォさん隣）",
    "latitude": 43.0578386374,
    "longitude": 141.3518519532,
    "shop_id": "J001029504"
  },
  {
    "name": "豆皿料理 酒 そばまえ",
    "address": "北海道札幌市中央区南２条西３丁目20番地　moyuku SAPPORO",
    "latitude": 43.0574973365,
    "longitude": 141.3532746203,
    "shop_id": "J003560390"
  },
  {
    "name": "洋食居酒屋 REGALO KURA レガーロ クラ",
    "address": "北海道札幌市中央区南１条西５－１６　プレジデント松井ビル100-1F",
    "latitude": 43.058830116,
    "longitude": 141.3497818064,
    "shop_id": "J000999389"
  },
  {
    "name": "駅チカ弁当 あったか亭",
    "address": "北海道札幌市中央区北４条西４丁目1-1 チ・カ・ホ札幌駅前通地下",
    "latitude": 43.0657473504,
    "longitude": 141.3503618876,
    "shop_id": "J003845004"
  },
  {
    "name": "札幌 炭火串焼 やまと",
    "address": "北海道札幌市中央区北３条東２－２－５",
    "latitude": 43.0660333947,
    "longitude": 141.3578720097,
    "shop_id": "J000707573"
  },
  {
    "name": "海鮮丼屋 小熊商店",
    "address": "北海道札幌市中央区南３条東１丁目8番地二条市場内",
    "latitude": 43.0583148972,
    "longitude": 141.3581652298,
    "shop_id": "J001285189"
  },
  {
    "name": "餃子とおでん 時々中華 札幌ダイニング ペーデー",
    "address": "北海道札幌市中央区南２条西４丁目１２－５乙井ビルＢ１",
    "latitude": 43.057862514,
    "longitude": 141.3515653115,
    "shop_id": "J000990354"
  },
  {
    "name": "らーめん 逍遥亭",
    "address": "北海道札幌市中央区南１条西５丁目　プレジデント松井ビル１００　地下１階",
    "latitude": 43.0588170606,
    "longitude": 141.3497395888,
    "shop_id": "J000835470"
  },
  {
    "name": "新洋食 KAZU カズ",
    "address": "北海道札幌市中央区南１条西５丁目　プレジデント松井ビル100地下1階",
    "latitude": 43.0588295586,
    "longitude": 141.3497234785,
    "shop_id": "J000973808"
  },
  {
    "name": "一鱗酒場",
    "address": "北海道札幌市中央区南２条西４丁目１２ー５　乙井ビル２階",
    "latitude": 43.0578197422,
    "longitude": 141.3515880898,
    "shop_id": "J001250855"
  },
  {
    "name": "海鮮個室酒場 伊まり 札幌駅南口店",
    "address": "北海道札幌市中央区北４条西４丁目1-1 ニュー札幌ビル 地下1階",
    "latitude": 43.0656715184,
    "longitude": 141.3501194147,
    "shop_id": "J003389519"
  },
  {
    "name": "OYOBARE オヨバーレ",
    "address": "北海道札幌市中央区南２条西５丁目２６－２東急ステイ札幌大通２F",
    "latitude": 43.0580971864,
    "longitude": 141.3509114688,
    "shop_id": "J003916954"
  },
  {
    "name": "炭火焼と海鮮、手づくり豆富 まいど! 札幌駅南口店",
    "address": "北海道札幌市中央区北４条西２丁目　キタコートレードビル2F",
    "latitude": 43.0667912138,
    "longitude": 141.3534584825,
    "shop_id": "J001193047"
  },
  {
    "name": "とんかつ 檍 あおき 札幌大通店",
    "address": "北海道札幌市中央区南１条西５丁目5-1",
    "latitude": 43.0584876698,
    "longitude": 141.3501554038,
    "shop_id": "J001259061"
  },
  {
    "name": "お盆としゃぶしゃぶ十勝晴れ東急店",
    "address": "北海道札幌市中央区北４条西２丁目　東急百貨店さっぽろ店10F",
    "latitude": 43.0667284252,
    "longitude": 141.3528932607,
    "shop_id": "J001194888"
  },
  {
    "name": "OriginalDining KENT S オリジナルダイニング ケントス",
    "address": "北海道札幌市中央区大通東３丁目1-1　トルチュビル1階",
    "latitude": 43.0621564644,
    "longitude": 141.3608975216,
    "shop_id": "J003497052"
  },
  {
    "name": "炙屋 札幌駅南口店 炭焼 寿し処",
    "address": "北海道札幌市中央区北４条西２丁目　札幌ＴＲビル10階",
    "latitude": 43.0667934251,
    "longitude": 141.3531326791,
    "shop_id": "J000762771"
  },
  {
    "name": "魚民 札幌南口駅前店",
    "address": "北海道札幌市中央区北４条西４－１－１ ニュー札幌ビル １F",
    "latitude": 43.0657012356,
    "longitude": 141.3500769168,
    "shop_id": "J001009351"
  },
  {
    "name": "檸檬家 れもんや 札幌駅前店",
    "address": "北海道札幌市中央区北4条西2丁目1番25号　札幌ＴＲビル6Ｆ",
    "latitude": 43.0668009266,
    "longitude": 141.3532068385,
    "shop_id": "J001019086"
  },
  {
    "name": "個室 北海道極食材 籠家 かごや 札幌駅南口本店",
    "address": "北海道札幌市中央区北４条西２-1-25 札幌TRビル 9F",
    "latitude": 43.0668009266,
    "longitude": 141.3532068385,
    "shop_id": "J001195922"
  },
  {
    "name": "串鳥 札幌駅前店",
    "address": "北海道札幌市中央区北４条西２丁目 TRビル2F",
    "latitude": 43.0668009266,
    "longitude": 141.3532068385,
    "shop_id": "J000852248"
  },
  {
    "name": "インターネット&マンガ喫茶 DiCE 札幌駅南口店",
    "address": "北海道札幌市中央区北４条西２-1-25 札幌TRビル5F",
    "latitude": 43.0668009266,
    "longitude": 141.3532068385,
    "shop_id": "J001280535"
  },
  {
    "name": "カラオケ館 札幌駅前店",
    "address": "北海道札幌市中央区北４条西２-1-25",
    "latitude": 43.0667970363,
    "longitude": 141.353149344,
    "shop_id": "J000762202"
  },
  {
    "name": "串鳥 番外地 駅前通店",
    "address": "北海道札幌市中央区北４条西４丁目１－１　ニュー札幌ビル２Ｆ",
    "latitude": 43.0657234558,
    "longitude": 141.3500977468,
    "shop_id": "J001168124"
  },
  {
    "name": "カラオケ マッシュ 札幌ナナイロ店",
    "address": "北海道札幌市中央区南２条西４丁目　札幌ナナイロビル　5F",
    "latitude": 43.0575111981,
    "longitude": 141.3524910807,
    "shop_id": "J001238987"
  },
  {
    "name": "北海道イタリアン居酒屋 エゾバルバンバン 札幌駅前通り店",
    "address": "北海道札幌市中央区北４条西４丁目１－１　ニュー札幌ビル２Ｆ ",
    "latitude": 43.0657234558,
    "longitude": 141.3500977468,
    "shop_id": "J003324825"
  },
  {
    "name": "ダイナー エス DINER es 札幌駅店",
    "address": "北海道札幌市中央区北４条西２丁目１－２５　札幌ＴＲビル９階",
    "latitude": 43.0668064791,
    "longitude": 141.3531326783,
    "shop_id": "J000989880"
  },
  {
    "name": "海鮮響 札幌駅前店",
    "address": "北海道札幌市中央区北4条西2丁目1番25号　札幌ＴＲビル6Ｆ",
    "latitude": 43.0668081458,
    "longitude": 141.3531410108,
    "shop_id": "J001009952"
  },
  {
    "name": "イタリアン居酒屋 バーデンバーデン 札幌駅前店",
    "address": "北海道札幌市中央区北4条西2丁目1番25号　札幌ＴＲビル6Ｆ",
    "latitude": 43.0668081458,
    "longitude": 141.3531410108,
    "shop_id": "J001009956"
  },
  {
    "name": "どさんこキッチン レトロなゴリラ 南3条店",
    "address": "北海道札幌市中央区南３条西３丁目　Nメッセビル　1階",
    "latitude": 43.0572765641,
    "longitude": 141.3543175929,
    "shop_id": "J001178332"
  },
  {
    "name": "天ぷら あて巻き そばいち",
    "address": "北海道札幌市中央区北４条西１-1 ホクレンビルB1F",
    "latitude": 43.0669067778,
    "longitude": 141.3541453564,
    "shop_id": "J003582070"
  },
  {
    "name": "マザーリーフ さっぽろ東急店",
    "address": "北海道札幌市中央区北４条西２-1　さっぽろ東急百貨店2F",
    "latitude": 43.0667745258,
    "longitude": 141.352742994,
    "shop_id": "J000303281"
  },
  {
    "name": "牡蠣と肉 天国札幌",
    "address": "北海道札幌市中央区南３条西３丁目11番地 Nメッセビル5階",
    "latitude": 43.0572610108,
    "longitude": 141.3543281484,
    "shop_id": "J003581766"
  },
  {
    "name": "発酵ダイニング ぽんぽこ亭",
    "address": "北海道札幌市中央区南３条西３丁目１２-２ アルファ狸小路ビル B１F",
    "latitude": 43.0572587779,
    "longitude": 141.3539940128,
    "shop_id": "J000041630"
  },
  {
    "name": "国産クラフトビールともつ料理を愉しむお店 #サカノバクラフト",
    "address": "北海道札幌市中央区南３条西１丁目　3番地3　マルビル１F　（１階路面店）",
    "latitude": 43.0574543837,
    "longitude": 141.3562587916,
    "shop_id": "J001050612"
  },
  {
    "name": "日本酒バル sizucu しずく 大通本店",
    "address": "北海道札幌市中央区南３条西３N-メッセビル　６F",
    "latitude": 43.0572490684,
    "longitude": 141.3543467585,
    "shop_id": "J001215261"
  },
  {
    "name": "芋の華 ホクレンビル本店",
    "address": "北海道札幌市中央区北４条西１丁目　ホクレンビルB1F",
    "latitude": 43.0669376037,
    "longitude": 141.3540334204,
    "shop_id": "J000723166"
  },
  {
    "name": "はなみずき 札幌駅前店",
    "address": "北海道札幌市中央区北４条西２－１－２５　札幌TRビル6F",
    "latitude": 43.0668586939,
    "longitude": 141.3531004559,
    "shop_id": "J001036924"
  },
  {
    "name": "魚と肴 おうぎや",
    "address": "北海道札幌市中央区南３条東１丁目６　のれん横丁２階",
    "latitude": 43.0581335318,
    "longitude": 141.35821107,
    "shop_id": "J001261035"
  },
  {
    "name": "トラットリア トレンタ TRATTORIA TRENTA",
    "address": "北海道札幌市中央区南１条西５丁目　郵政福祉札幌第一ビル2F",
    "latitude": 43.0587676151,
    "longitude": 141.3495221119,
    "shop_id": "J000250419"
  },
  {
    "name": "韓国料理居酒屋 マビの台所 南１条店",
    "address": "北海道札幌市中央区南１条西５丁目２０　郵政福祉札幌第一ビルB１F",
    "latitude": 43.0587734473,
    "longitude": 141.3495090572,
    "shop_id": "J000678677"
  },
  {
    "name": "博多餃子舎 603 札幌駅前店",
    "address": "北海道札幌市中央区北４条西２丁目　札幌TRビル2階",
    "latitude": 43.0668806361,
    "longitude": 141.3531112869,
    "shop_id": "J000957895"
  },
  {
    "name": "ラーメン札幌一粒庵",
    "address": "北海道札幌市中央区北４条西１丁目１番ホクレンビル地下１階",
    "latitude": 43.0669712165,
    "longitude": 141.3542092355,
    "shop_id": "J000727409"
  },
  {
    "name": "ビッグエコー BIG ECHO 札幌駅前店",
    "address": "北海道札幌市中央区北４条西３丁目1－1　aune札幌駅前ビルB1F",
    "latitude": 43.0662886927,
    "longitude": 141.3509468007,
    "shop_id": "J000684234"
  },
  {
    "name": "居酒屋 遊ぜん",
    "address": "北海道札幌市中央区南１条西５丁目　郵政福祉札幌第１ビルＢ１Ｆ",
    "latitude": 43.0587548371,
    "longitude": 141.3494685066,
    "shop_id": "J000063016"
  },
  {
    "name": "海へ すすきの南3条店",
    "address": "北海道札幌市中央区南３条西２丁目　木下ビル１階",
    "latitude": 43.0572010281,
    "longitude": 141.3546342349,
    "shop_id": "J000972451"
  },
  {
    "name": "Stampede's Cafe&Dining Bar スタンピーズ カフェ&ダイニングバー",
    "address": "北海道札幌市中央区北４条西２丁目１番地２　キタコートレードビル Ｂ１Ｆ",
    "latitude": 43.0669445284,
    "longitude": 141.3534543069,
    "shop_id": "J001201897"
  },
  {
    "name": "揚げたて串カツと焼き鳥 てっちゃん 南1条店",
    "address": "北海道札幌市中央区南１条西５－１７－２　プレジデント松井ビル１００－１Ｆ",
    "latitude": 43.0586190266,
    "longitude": 141.3496612748,
    "shop_id": "J001287291"
  },
  {
    "name": "MODISH札幌 モディッシュ",
    "address": "北海道札幌市中央区南２条西４丁目（狸小路４丁目）　リッチモンドホテル１Ｆ",
    "latitude": 43.0575172907,
    "longitude": 141.3519489082,
    "shop_id": "J000026784"
  },
  {
    "name": "ジンギスカン ホルモン酒場 風土. 札幌駅前店",
    "address": "北海道札幌市中央区北４条西２丁目　札幌ＴＲビル２階",
    "latitude": 43.0669111881,
    "longitude": 141.3531165623,
    "shop_id": "J000773233"
  },
  {
    "name": "酒、銀シャリ、おだし やちよ 札幌狸小路3丁目店",
    "address": "北海道札幌市中央区南３条西３丁目１５　アルファ３条ビル Ｂ１階",
    "latitude": 43.0572240414,
    "longitude": 141.3534282338,
    "shop_id": "J001203894"
  },
  {
    "name": "立呑みパラダイス",
    "address": "北海道札幌市中央区北４条西４丁目１　札幌国際ビルＢ１",
    "latitude": 43.0659764847,
    "longitude": 141.3502213311,
    "shop_id": "J001216210"
  },
  {
    "name": "北海ラーメン 札幌駅前店",
    "address": "北海道札幌市中央区北４条西４丁目１番地  札幌国際ビル地下１階",
    "latitude": 43.0659559302,
    "longitude": 141.3501777253,
    "shop_id": "J000624002"
  },
  {
    "name": "肉汁餃子のダンダダン 札幌店",
    "address": "北海道札幌市中央区北４条西４丁目　札幌国際ビルB1F",
    "latitude": 43.0659559302,
    "longitude": 141.3501777253,
    "shop_id": "J001266615"
  },
  {
    "name": "中華とおばんざい たまひろ",
    "address": "北海道札幌市中央区南３条東１丁目のれん横丁 1F",
    "latitude": 43.0581688136,
    "longitude": 141.3584668775,
    "shop_id": "J003762373"
  },
  {
    "name": "九州魂 札幌狸小路3丁目店",
    "address": "北海道札幌市中央区南３条西３丁目１５番地　アルファ南３条ビル２Ｆ",
    "latitude": 43.0572226472,
    "longitude": 141.3532618604,
    "shop_id": "J000972546"
  },
  {
    "name": "葡萄日和 ヨイノクチ",
    "address": "北海道札幌市中央区北４条西２丁目１－２キタコートレードビル１階",
    "latitude": 43.0670014683,
    "longitude": 141.3535270744,
    "shop_id": "J001232578"
  },
  {
    "name": "酒菜日和 ナマラヨシ",
    "address": "北海道札幌市中央区北４条西２丁目１－２キタコートレードビル１階",
    "latitude": 43.0670020224,
    "longitude": 141.3534834673,
    "shop_id": "J001232577"
  },
  {
    "name": "丼兵衛 二条市場店",
    "address": "北海道札幌市中央区南３条東２丁目８",
    "latitude": 43.0585374006,
    "longitude": 141.3590967969,
    "shop_id": "J003916017"
  },
  {
    "name": "German Bar SHO ジャーマンバーショウ",
    "address": "北海道札幌市中央区南３条西１丁目 チトセビル２Ｆ",
    "latitude": 43.0573224575,
    "longitude": 141.3563237936,
    "shop_id": "J001194405"
  },
  {
    "name": "SALT MODERATE ソルトモデラート",
    "address": "北海道札幌市中央区南３条西１丁目ー２－１",
    "latitude": 43.0573416241,
    "longitude": 141.3563929528,
    "shop_id": "J003716095"
  },
  {
    "name": "あっ晴れ 札幌",
    "address": "北海道札幌市中央区南３条西２丁目（南向）　ニコービル５F",
    "latitude": 43.0571641138,
    "longitude": 141.3554188869,
    "shop_id": "J000027256"
  },
  {
    "name": "SPARKLING BAR bbb スパークリングバー ビービービー",
    "address": "北海道札幌市中央区南３条西１丁目2-1　チトセビル２Ｆ",
    "latitude": 43.0573232914,
    "longitude": 141.356346847,
    "shop_id": "J001161542"
  },
  {
    "name": "大通公園ビル フードハウス",
    "address": "北海道札幌市中央区大通西６丁目　大通公園ビル２階",
    "latitude": 43.0607389864,
    "longitude": 141.3478115946,
    "shop_id": "J001187448"
  },
  {
    "name": "和食と鮨のに条",
    "address": "北海道札幌市中央区南３条東２－６－１　プレサントビル1F",
    "latitude": 43.0583654726,
    "longitude": 141.3589598756,
    "shop_id": "J000303287"
  },
  {
    "name": "岩見沢精肉卸直営 牛乃家 本店",
    "address": "北海道札幌市中央区南２条西４丁目１０－１　ラージカントリービル１Ｆ",
    "latitude": 43.057567266,
    "longitude": 141.3513778468,
    "shop_id": "J000716924"
  },
  {
    "name": "ビアバー　ノースアイランド",
    "address": "北海道札幌市中央区南２条西４丁目10-1 ラージカントリービル10F",
    "latitude": 43.0575183846,
    "longitude": 141.3514256231,
    "shop_id": "J003630003"
  },
  {
    "name": "北前家 ゆう千",
    "address": "北海道札幌市中央区北３条東２－２－３",
    "latitude": 43.0663725307,
    "longitude": 141.3581941815,
    "shop_id": "J001261924"
  },
  {
    "name": "ノ貫札幌",
    "address": "北海道札幌市中央区南２条西４-10-4  2F",
    "latitude": 43.0574461715,
    "longitude": 141.3514370154,
    "shop_id": "J003806841"
  },
  {
    "name": "月と太陽BREWING 本店",
    "address": "北海道札幌市中央区南３条東１丁目３　アルファ創成川公園ビル1階",
    "latitude": 43.0579438429,
    "longitude": 141.3585274412,
    "shop_id": "J001285486"
  },
  {
    "name": "Irish Pub BRIAN BREW ブライアンブルー 南3条店",
    "address": "北海道札幌市中央区南３条西３－１４－２　FAーS３ビル１階",
    "latitude": 43.0569649129,
    "longitude": 141.3536332306,
    "shop_id": "J000670914"
  },
  {
    "name": "豚と魚藍カタ",
    "address": "北海道札幌市中央区南２条西４丁目１０番地2.4ビル　２F ",
    "latitude": 43.0573975662,
    "longitude": 141.3514350741,
    "shop_id": "J003532914"
  },
  {
    "name": "恵美須商店 南2西5",
    "address": "北海道札幌市中央区南２条西５丁目",
    "latitude": 43.0574958742,
    "longitude": 141.3510245505,
    "shop_id": "J001168083"
  },
  {
    "name": "海鮮鉄板居酒屋 てっぱち札幌大通店",
    "address": "北海道札幌市中央区南２条西５丁目1-2F",
    "latitude": 43.057492541,
    "longitude": 141.3510142738,
    "shop_id": "J003851326"
  },
  {
    "name": "韓国居酒屋 DAEBAK KITCHEN すすきの店",
    "address": "北海道札幌市中央区南３条西２丁目４－２",
    "latitude": 43.0569435913,
    "longitude": 141.3556133268,
    "shop_id": "J003762605"
  },
  {
    "name": "鉄板ダイニング DOUZO",
    "address": "北海道札幌市中央区南３条西２丁目４－２",
    "latitude": 43.0569435913,
    "longitude": 141.3556133268,
    "shop_id": "J003851385"
  },
  {
    "name": "味覚園 南2条店",
    "address": "北海道札幌市中央区南２条西５丁目３０－４７",
    "latitude": 43.0579607826,
    "longitude": 141.3499487882,
    "shop_id": "J000979812"
  },
  {
    "name": "菜 もっきりや",
    "address": "北海道札幌市中央区南２条西５丁目(仲小路)",
    "latitude": 43.0580218826,
    "longitude": 141.3498362949,
    "shop_id": "J000039494"
  },
  {
    "name": "お肉屋季稟 北4条店",
    "address": "北海道札幌市中央区北４条東２丁目８－４　山城屋ビル１F",
    "latitude": 43.0666947033,
    "longitude": 141.3578739137,
    "shop_id": "J003599197"
  },
  {
    "name": "海鮮居酒屋 かりーな",
    "address": "北海道札幌市中央区南２条西５丁目26-17 第一北野家ビル 2F",
    "latitude": 43.0576986073,
    "longitude": 141.3504107059,
    "shop_id": "J001227186"
  },
  {
    "name": "ビーフインパクト 狸小路店",
    "address": "北海道札幌市中央区南３条西４丁目17番1号(狸小路アーケード内)",
    "latitude": 43.0570815168,
    "longitude": 141.3521472497,
    "shop_id": "J001099304"
  },
  {
    "name": "産直大衆ビストロ SACHI サチ 大通店",
    "address": "北海道札幌市中央区南３条西２丁目７－１　１Ｆ",
    "latitude": 43.056851646,
    "longitude": 141.3552455886,
    "shop_id": "J000989144"
  },
  {
    "name": "THE CHEATDAY SAPPORO ザ チートデイ サッポロ",
    "address": "北海道札幌市中央区南３条西１丁目９－２２　フロンティア札幌ビル 2F",
    "latitude": 43.0570297186,
    "longitude": 141.3564279685,
    "shop_id": "J003763811"
  },
  {
    "name": "ひゃくや 狸小路駅前店",
    "address": "北海道札幌市中央区南３条西４丁目１７－３　J-BOXビル３F",
    "latitude": 43.0570879028,
    "longitude": 141.3520811443,
    "shop_id": "J003894207"
  },
  {
    "name": "蛯天庵",
    "address": "北海道札幌市中央区北１条西６札幌ガーデンパレスホテル Ｂ１",
    "latitude": 43.0622315609,
    "longitude": 141.3471387882,
    "shop_id": "J000707087"
  },
  {
    "name": "札幌牛亭 南3条店",
    "address": "北海道札幌市中央区南３条西４丁目１２－１　アルシュビル５F",
    "latitude": 43.0569743212,
    "longitude": 141.3525624956,
    "shop_id": "J001284726"
  },
  {
    "name": "酒屋Bar HANASAKU",
    "address": "北海道札幌市中央区南３条西４-12-1アルシュビル地下1階",
    "latitude": 43.0569743212,
    "longitude": 141.3525624956,
    "shop_id": "J003473105"
  },
  {
    "name": "牛角 狸小路4丁目店",
    "address": "北海道札幌市中央区南３条西４丁目12-1　5階",
    "latitude": 43.056963211,
    "longitude": 141.352548331,
    "shop_id": "J001222559"
  },
  {
    "name": "しゃぶ葉 札幌狸小路店",
    "address": "北海道札幌市中央区南３条西４‐１２‐１",
    "latitude": 43.056963211,
    "longitude": 141.352548331,
    "shop_id": "J001232330"
  },
  {
    "name": "ネットカフェ&カラオケ DiCE 札幌狸小路本店",
    "address": "北海道札幌市中央区南３条西４-12-1 アルシュビル６F-7F",
    "latitude": 43.056963211,
    "longitude": 141.352548331,
    "shop_id": "J001252010"
  },
  {
    "name": "TANUQ",
    "address": "北海道札幌市中央区南２条西５-１８ 狸小路横丁1F",
    "latitude": 43.0576605562,
    "longitude": 141.35040432,
    "shop_id": "J003830009"
  },
  {
    "name": "うみんちゅぬ やまんちゅぬ 本店",
    "address": "北海道札幌市中央区南３条西１フロンティアビル3F　（スガイ隣り）",
    "latitude": 43.0570008326,
    "longitude": 141.3564074166,
    "shop_id": "J000705238"
  },
  {
    "name": "琉球酒場 りっかりっか",
    "address": "北海道札幌市中央区南３条西３サンスリービル２Ｆ",
    "latitude": 43.0567954978,
    "longitude": 141.3539026605,
    "shop_id": "J000972893"
  },
  {
    "name": "喜多川",
    "address": "北海道札幌市中央区南２条西５丁目　第一北野家ビルB1",
    "latitude": 43.0576683314,
    "longitude": 141.3503562684,
    "shop_id": "J000760091"
  },
  {
    "name": "吉在門",
    "address": "北海道札幌市中央区南３条西３　もりにビル1F",
    "latitude": 43.0567954978,
    "longitude": 141.3539026605,
    "shop_id": "J000999368"
  },
  {
    "name": "SHEEP GANG シープ ギャング",
    "address": "北海道札幌市中央区南３条西１丁目９番地２２",
    "latitude": 43.0569916681,
    "longitude": 141.3564413029,
    "shop_id": "J003917133"
  },
  {
    "name": "CAFE NOYMOND ノイモンド",
    "address": "北海道札幌市中央区南３条西２丁目7-1",
    "latitude": 43.0567705298,
    "longitude": 141.3547875802,
    "shop_id": "J001099412"
  },
  {
    "name": "North Lounge Mero ノース ラウンジ メロ",
    "address": "北海道札幌市中央区南３条西１丁目９‐２２　フロンティア札幌ビル 1Ｆ",
    "latitude": 43.0569769477,
    "longitude": 141.3564407483,
    "shop_id": "J001186099"
  },
  {
    "name": "アテニヨル Little China",
    "address": "北海道札幌市中央区南３条西３丁目　Gダイニング札幌ビル２階",
    "latitude": 43.0567591271,
    "longitude": 141.3543220684,
    "shop_id": "J001237974"
  },
  {
    "name": "とんかつ檍 あおき 札幌すすきの店",
    "address": "北海道札幌市中央区南３条西２丁目7-1",
    "latitude": 43.0567763711,
    "longitude": 141.3550517221,
    "shop_id": "J001258748"
  },
  {
    "name": "粋な居酒屋あいよ 狸小路4丁目店",
    "address": "北海道札幌市中央区南２条西４丁目10-2　清水ビルB1",
    "latitude": 43.0571845389,
    "longitude": 141.3515075803,
    "shop_id": "J003763798"
  },
  {
    "name": "男吉 本店",
    "address": "北海道札幌市中央区南２条西５丁目３０－１",
    "latitude": 43.0579085626,
    "longitude": 141.3498246362,
    "shop_id": "J000250476"
  },
  {
    "name": "安安 札幌南3条店",
    "address": "北海道札幌市中央区南３条西１-２-４",
    "latitude": 43.0570327831,
    "longitude": 141.3567112755,
    "shop_id": "J001208389"
  },
  {
    "name": "炭焼塩ホルモン 七厘",
    "address": "北海道札幌市中央区南２条西５丁目１",
    "latitude": 43.0573161765,
    "longitude": 141.3511070538,
    "shop_id": "J000835483"
  },
  {
    "name": "伊まり 狸小路駅前店",
    "address": "北海道札幌市中央区南３条西４丁目１７－３　J-BOXビル３F",
    "latitude": 43.0570134681,
    "longitude": 141.3521050355,
    "shop_id": "J003894209"
  },
  {
    "name": "北海道海鮮居酒屋 いろりあん 大通本店",
    "address": "北海道札幌市中央区南１条西６丁目第27桂和ビルB1",
    "latitude": 43.0583932017,
    "longitude": 141.3490802311,
    "shop_id": "J001017254"
  },
  {
    "name": "風月 狸小路4丁目店",
    "address": "北海道札幌市中央区南３条西４丁目12-1  アルシュビル５Ｆ",
    "latitude": 43.056905441,
    "longitude": 141.3525744432,
    "shop_id": "J001252004"
  },
  {
    "name": "グルメガーデン クスクス",
    "address": "北海道札幌市中央区南２条西５－３０",
    "latitude": 43.0578702346,
    "longitude": 141.3498446367,
    "shop_id": "J000939007"
  },
  {
    "name": "しゃぶしゃぶ温野菜 札幌駅前店",
    "address": "北海道札幌市中央区北４条西５丁目１－４　大樹生命札幌共同ビル１F",
    "latitude": 43.0656698118,
    "longitude": 141.3488923059,
    "shop_id": "J001185975"
  },
  {
    "name": "米風亭",
    "address": "北海道札幌市中央区南３条西１丁目　和田ビル1F",
    "latitude": 43.0569875104,
    "longitude": 141.3566990571,
    "shop_id": "J000250486"
  },
  {
    "name": "フランス料理 華蘭亭",
    "address": "北海道札幌市中央区北２条西１丁目１　ホテルモントレエーデルホフ札幌１２階",
    "latitude": 43.067316519,
    "longitude": 141.3562462485,
    "shop_id": "J000660767"
  },
  {
    "name": "アズバー AZUBAR",
    "address": "北海道札幌市中央区南３条西３丁目　G　ＤＩＮＩＮＧ　SAPPORO　地下１階",
    "latitude": 43.0566999655,
    "longitude": 141.3542584667,
    "shop_id": "J000740435"
  },
  {
    "name": "串揚げ Caratto カラット",
    "address": "北海道札幌市中央区南３条西３丁目　G-DINNING　5F",
    "latitude": 43.0567110583,
    "longitude": 141.3537399029,
    "shop_id": "J003737450"
  },
  {
    "name": "カラオケ館 狸小路店",
    "address": "北海道札幌市中央区南３条西４丁目－１９　真木ビル",
    "latitude": 43.0570276229,
    "longitude": 141.3517945078,
    "shop_id": "J000027456"
  },
  {
    "name": "LOVE ESPRESSO ラブエスプレッソ",
    "address": "北海道札幌市中央区南２条西５-31-1 松原ビル1F",
    "latitude": 43.0579385529,
    "longitude": 141.3496393737,
    "shop_id": "J001291599"
  },
  {
    "name": "HEY MEAT ヘイミート",
    "address": "北海道札幌市中央区南３条西３-3-2第2タムラビル 1F",
    "latitude": 43.0566838545,
    "longitude": 141.354200973,
    "shop_id": "J001292342"
  },
  {
    "name": "牛のいしざき",
    "address": "北海道札幌市中央区南３条西３丁目　G DINING SAPPORO 3階",
    "latitude": 43.0566769122,
    "longitude": 141.354242914,
    "shop_id": "J000624217"
  },
  {
    "name": "元祖北海魚串 がりや",
    "address": "北海道札幌市中央区南３条西３丁目６－１　もりにビル３Ｆ",
    "latitude": 43.0566763458,
    "longitude": 141.3539085005,
    "shop_id": "J001200046"
  },
  {
    "name": "cafe＆bar Brew it ブリューイット",
    "address": "北海道札幌市中央区南３条西３丁目３－２　第二田村ビル１階",
    "latitude": 43.0566669113,
    "longitude": 141.3541762541,
    "shop_id": "J003736787"
  },
  {
    "name": "籠家 すすきの 南3条店",
    "address": "北海道札幌市中央区南３条西３丁目３　G DINING SAPPORO　５F",
    "latitude": 43.0566669113,
    "longitude": 141.3541762541,
    "shop_id": "J003941954"
  },
  {
    "name": "ぶあいそ 南3条店 博多うまかもん",
    "address": "北海道札幌市中央区南３条西２-7-4",
    "latitude": 43.0566622117,
    "longitude": 141.3548525808,
    "shop_id": "J000678692"
  },
  {
    "name": "中目卓球ラウンジ 札幌分室",
    "address": "北海道札幌市中央区南３条西３丁目中屋ビル5F(旧新山ビル5F)",
    "latitude": 43.0566499644,
    "longitude": 141.3540404344,
    "shop_id": "J000712198"
  },
  {
    "name": "燻製料理とワインが愉しめるおばんざい屋 おばんざい坊",
    "address": "北海道札幌市中央区南２条西５丁目３１－２　２F",
    "latitude": 43.0578213481,
    "longitude": 141.3497365941,
    "shop_id": "J001160505"
  },
  {
    "name": "博多うずまき 札幌大通店",
    "address": "北海道札幌市中央区南１条西６-１６-２　M１・６ビル1F",
    "latitude": 43.0586800943,
    "longitude": 141.3485602617,
    "shop_id": "J001291984"
  },
  {
    "name": "北海道×スパニッシュ スプーン SPOON",
    "address": "北海道札幌市中央区南3条西2丁目7－1　ICC南3条ビルB1F",
    "latitude": 43.0566313833,
    "longitude": 141.3548886905,
    "shop_id": "J000999346"
  },
  {
    "name": "居酒屋 MORO 札幌",
    "address": "北海道札幌市中央区南３条西２丁目ｌ.C.C南３条ビル１F",
    "latitude": 43.0566369392,
    "longitude": 141.3549197984,
    "shop_id": "J001052337"
  },
  {
    "name": "地鶏と酒と地野菜 御萩 OHAGI",
    "address": "北海道札幌市中央区南３条西２-7-1 ICC南3条ビル3F",
    "latitude": 43.0566422172,
    "longitude": 141.354945629,
    "shop_id": "J001238690"
  },
  {
    "name": "塩とダシ　たいち",
    "address": "北海道札幌市中央区南３条西２－KT三条ビルB１F",
    "latitude": 43.0566747276,
    "longitude": 141.3553844754,
    "shop_id": "J003784096"
  },
  {
    "name": "喫茶こともし",
    "address": "北海道札幌市中央区南２条東３丁目 cafe＆salon White Mug内",
    "latitude": 43.0590262786,
    "longitude": 141.3605791303,
    "shop_id": "J003828411"
  },
  {
    "name": "京風亭",
    "address": "北海道札幌市中央区南３条西３丁目３番地２－２　GDINING４階",
    "latitude": 43.0566263649,
    "longitude": 141.3543056891,
    "shop_id": "J003829662"
  },
  {
    "name": "居酒屋 夕顔 ゆうがお",
    "address": "北海道札幌市中央区南３条西３丁目プレイタウンふじ井ビル４階",
    "latitude": 43.0566155392,
    "longitude": 141.3544984497,
    "shop_id": "J000954899"
  },
  {
    "name": "台湾料理 豐台味 FON TAI WEI",
    "address": "北海道札幌市中央区南３条西３G DINING札幌ビル 7階",
    "latitude": 43.0566105335,
    "longitude": 141.3543070788,
    "shop_id": "J003828446"
  },
  {
    "name": "シックスセンス 札幌 Sixth Sense",
    "address": "北海道札幌市中央区南３条西３丁目9-1 岩本ビルB1",
    "latitude": 43.0566410611,
    "longitude": 141.353565201,
    "shop_id": "J000989163"
  },
  {
    "name": "@AT アット 狸小路",
    "address": "北海道札幌市中央区南３条西３丁目プレイタウンふじ井４階",
    "latitude": 43.0566024849,
    "longitude": 141.3544895624,
    "shop_id": "J001184461"
  },
  {
    "name": "ルンゴカーニバル ハウスダイニング 南3条 総本店",
    "address": "北海道札幌市中央区南３条西２丁目　Ｉ．Ｃ．Ｃ南３条ビル５F",
    "latitude": 43.056607498,
    "longitude": 141.3549073013,
    "shop_id": "J000027402"
  },
  {
    "name": "星空料理店",
    "address": "北海道札幌市中央区南３条西４丁目　ワカツキスクエアビル１０F",
    "latitude": 43.05682044,
    "longitude": 141.3522280914,
    "shop_id": "J000624028"
  },
  {
    "name": "ハヤシ料理店",
    "address": "北海道札幌市中央区南３条西３丁目　プレイタウンふじ井ビル3階",
    "latitude": 43.056596374,
    "longitude": 141.3544745642,
    "shop_id": "J001276581"
  },
  {
    "name": "BORDERLESS WORLD ボーダーレスワールド すすきの店",
    "address": "北海道札幌市中央区南３条西３丁目1番8　プレイタウン藤井ビルB1F",
    "latitude": 43.056596374,
    "longitude": 141.3544745642,
    "shop_id": "J001292984"
  },
  {
    "name": "MEAT MAN  ミートマン 札幌",
    "address": "北海道札幌市中央区南３条西３丁目プレイタウン藤井ビル４F",
    "latitude": 43.056596374,
    "longitude": 141.3544745642,
    "shop_id": "J003450479"
  },
  {
    "name": "和みの器 N エンネ",
    "address": "北海道札幌市中央区南３条西３丁目１　プレイタウンふじ井　３F",
    "latitude": 43.056596374,
    "longitude": 141.3544745642,
    "shop_id": "J003473099"
  },
  {
    "name": "札幌　煮こみ豚足と本まぐろえーす",
    "address": "北海道札幌市中央区南３条西３丁目１プレイタウンふじ井７階",
    "latitude": 43.056596374,
    "longitude": 141.3544745642,
    "shop_id": "J003624129"
  },
  {
    "name": "ソレデモヤッパリ酒と女",
    "address": "北海道札幌市中央区南３条西３丁目プレイタウンふじ井ビル6階",
    "latitude": 43.056596374,
    "longitude": 141.3544745642,
    "shop_id": "J003784083"
  },
  {
    "name": "おばんざいマイケル",
    "address": "北海道札幌市中央区南３条西３丁目1 プレイタウンふじ井6F",
    "latitude": 43.056596374,
    "longitude": 141.3544745642,
    "shop_id": "J003762343"
  },
  {
    "name": "ルンゴカーニバル南2条店",
    "address": "北海道札幌市中央区南２条西５丁目　アルファ2.5ビル ３F",
    "latitude": 43.057751635,
    "longitude": 141.3497554855,
    "shop_id": "J003763463"
  },
  {
    "name": "ラーメン山岡家 狸小路4丁目店",
    "address": "北海道札幌市中央区南３条西４丁目",
    "latitude": 43.0569562386,
    "longitude": 141.3516698014,
    "shop_id": "J000835874"
  },
  {
    "name": "味覚園 南3条店",
    "address": "北海道札幌市中央区南３条西３丁目6番地深井ビル１F・２F",
    "latitude": 43.0566010728,
    "longitude": 141.3537749063,
    "shop_id": "J001052026"
  },
  {
    "name": "日本酒 みずとり",
    "address": "北海道札幌市中央区南３条西３プレイタウンふじ井ビル　５F",
    "latitude": 43.0565860973,
    "longitude": 141.3544667878,
    "shop_id": "J003762005"
  },
  {
    "name": "韓味処 CHIBO ちぼ",
    "address": "北海道札幌市中央区南３条西３丁目プレイタウン藤井ビル９階",
    "latitude": 43.0565860973,
    "longitude": 141.3544667878,
    "shop_id": "J001238868"
  },
  {
    "name": "イタリアンダイニング クイーン",
    "address": "北海道札幌市中央区南３条西３丁目１プレイタウンふじ井ビル７F",
    "latitude": 43.0565860973,
    "longitude": 141.3544667878,
    "shop_id": "J001245849"
  },
  {
    "name": "麦源 むぎげん",
    "address": "北海道札幌市中央区南３条西４丁目J－BOXビル2F",
    "latitude": 43.0568334901,
    "longitude": 141.352107824,
    "shop_id": "J001136337"
  },
  {
    "name": "泡盛と沖縄料理 Aサインバー",
    "address": "北海道札幌市中央区南３条西３丁目　プレイタウンふじ井ビル　９F",
    "latitude": 43.0565674879,
    "longitude": 141.354452068,
    "shop_id": "J000636290"
  },
  {
    "name": "炭火居酒屋 炎 すすきの プレイタウン店",
    "address": "北海道札幌市中央区南３条西３丁目１番８　プレイタウンふじ井ビル２階",
    "latitude": 43.0565724909,
    "longitude": 141.3545615021,
    "shop_id": "J000805801"
  },
  {
    "name": "札幌肉酒場 VOLTA ボルタ",
    "address": "北海道札幌市中央区南３条西３丁目　Ｇ‐ＤＩＮＮＩＮＧ　５F",
    "latitude": 43.0565658174,
    "longitude": 141.3543273574,
    "shop_id": "J003737448"
  },
  {
    "name": "スリラーカラオケ 札幌南3条店",
    "address": "北海道札幌市中央区南３条西２丁目１－５",
    "latitude": 43.0566986357,
    "longitude": 141.3560605226,
    "shop_id": "J000027776"
  },
  {
    "name": "ラ ノッテ ルーナ La Notte Luna",
    "address": "北海道札幌市中央区南３条西２丁目　KT三条ビルB1F",
    "latitude": 43.0565980661,
    "longitude": 141.3552561586,
    "shop_id": "J000795735"
  },
  {
    "name": "魚吉 南三条店",
    "address": "北海道札幌市中央区南３条西３丁目 G-DINING札幌ビル7F",
    "latitude": 43.0565588719,
    "longitude": 141.3542698632,
    "shop_id": "J001028367"
  },
  {
    "name": "ugo Neck of the Woods ウゴ ネックオブザウッズ",
    "address": "北海道札幌市中央区南３条西３－６－１　もりにビル５階 ",
    "latitude": 43.0565716344,
    "longitude": 141.3538499012,
    "shop_id": "J003693972"
  },
  {
    "name": "昼食堂 ひるおか",
    "address": "北海道札幌市中央区南３条西２　ＫＴ３条ビル１階 ",
    "latitude": 43.0565658367,
    "longitude": 141.3549173029,
    "shop_id": "J003474451"
  },
  {
    "name": "浜っ子読売北海道ビル店",
    "address": "北海道札幌市中央区北４条西４北海道札幌市中央区北四条西4-1 読売北海道ビル B1F",
    "latitude": 43.0662953086,
    "longitude": 141.3494199969,
    "shop_id": "J003829641"
  },
  {
    "name": "四季彩 Shikisai 札幌駅前店",
    "address": "北海道札幌市中央区北四条西4－1読売北海道ビル2階",
    "latitude": 43.066353915,
    "longitude": 141.3494935976,
    "shop_id": "J001178950"
  },
  {
    "name": "完全個室居酒屋 別邸 札幌駅前店",
    "address": "北海道札幌市中央区北四条西4-1読売北海道ビル2Ｆ",
    "latitude": 43.06634586,
    "longitude": 141.3494794328,
    "shop_id": "J001178953"
  },
  {
    "name": "麺のひな詩",
    "address": "北海道札幌市中央区北３条東３-1-29 酒井ビル1F",
    "latitude": 43.0662461973,
    "longitude": 141.3594229645,
    "shop_id": "J000809163"
  },
  {
    "name": "AKI NAGAO アキナガオ",
    "address": "北海道札幌市中央区南３条西３丁目3 G DINING SAPPORO1F",
    "latitude": 43.0565355427,
    "longitude": 141.3543084721,
    "shop_id": "J000853614"
  },
  {
    "name": "Darts Bar TiTO+PLUS ティトプラス すすきの",
    "address": "北海道札幌市中央区南３条西４丁目17-3J・BOXビル9F",
    "latitude": 43.0567815506,
    "longitude": 141.3520664421,
    "shop_id": "J001028528"
  },
  {
    "name": "天ぷらとワイン ぶどうの花",
    "address": "北海道札幌市中央区南２条西５-31-2 1F",
    "latitude": 43.0576660898,
    "longitude": 141.3497554907,
    "shop_id": "J001267553"
  },
  {
    "name": "銘酒と割鮮 桃林",
    "address": "北海道札幌市中央区南３条西２丁目7-2 KT3条ビル B1F",
    "latitude": 43.056562236,
    "longitude": 141.3552239415,
    "shop_id": "J003340461"
  },
  {
    "name": "札幌のナチュラルワイン 日々",
    "address": "北海道札幌市中央区南２条西５丁目31-6　下地ビル１階",
    "latitude": 43.0575836046,
    "longitude": 141.3499002045,
    "shop_id": "J003433462"
  },
  {
    "name": "日本茶×干物 茶酒屋 Nendo すすきの",
    "address": "北海道札幌市中央区南３条西２-6番地ＫＴ3条ビルB1",
    "latitude": 43.0565516836,
    "longitude": 141.3552797703,
    "shop_id": "J001202710"
  },
  {
    "name": "wine厨房 月光",
    "address": "北海道札幌市中央区南３条西７丁目　狸小路7丁目　アーケード内2階",
    "latitude": 43.0565260863,
    "longitude": 141.3539090652,
    "shop_id": "J000707608"
  },
  {
    "name": "居酒屋 トロ Toro",
    "address": "北海道札幌市中央区南３条西２丁目 KT三条ビルB1(HBC三条ビル)",
    "latitude": 43.0565414052,
    "longitude": 141.3552242205,
    "shop_id": "J000773035"
  },
  {
    "name": "Bar CRAFTSMAN バー クラフトマン",
    "address": "北海道札幌市中央区南３条西４丁目17番地3　Ｊ・ＢＯＸビル ２F",
    "latitude": 43.0567351714,
    "longitude": 141.3521908778,
    "shop_id": "J003498189"
  },
  {
    "name": "牡蠣と餃子 焼き鳥にの 大通店",
    "address": "北海道札幌市中央区南２条西５丁目３１－５　第１三雄ビルＢ１Ｆ",
    "latitude": 43.0576408153,
    "longitude": 141.3497604918,
    "shop_id": "J003851495"
  },
  {
    "name": "スープカリー イエロー soup curry yellow",
    "address": "北海道札幌市中央区南３条西１丁目12-19 エルムビル１階",
    "latitude": 43.056886427,
    "longitude": 141.3571701309,
    "shop_id": "J000250432"
  },
  {
    "name": "ヴィアブレラ",
    "address": "北海道札幌市中央区南３条西２丁目６番地　KT３条ビル（旧HBC3条ビル）１階・西口",
    "latitude": 43.0565064011,
    "longitude": 141.3549667464,
    "shop_id": "J000717587"
  },
  {
    "name": "BAR CHEERIO",
    "address": "北海道札幌市中央区南３条西２丁目　KT３条ビル　B１F",
    "latitude": 43.0565108483,
    "longitude": 141.3550686812,
    "shop_id": "J000685350"
  },
  {
    "name": "肉バルBOB",
    "address": "北海道札幌市中央区南３条西２丁目6",
    "latitude": 43.0565180738,
    "longitude": 141.3551967245,
    "shop_id": "J001239008"
  },
  {
    "name": "ホルモンやき肉 うしたつ",
    "address": "北海道札幌市中央区南３条西３ジーダイニングビル3階",
    "latitude": 43.0564836059,
    "longitude": 141.3543515269,
    "shop_id": "J003671834"
  },
  {
    "name": "ASIAN MARKET スタンレー STANLEY",
    "address": "北海道札幌市中央区南２条西６丁目８　一閤ビル１Ｆ",
    "latitude": 43.0578668844,
    "longitude": 141.3493144081,
    "shop_id": "J000049562"
  },
  {
    "name": "シティ ボーイ CITY BOY",
    "address": "北海道札幌市中央区南１条西６丁目4-1　",
    "latitude": 43.058124341,
    "longitude": 141.3489435934,
    "shop_id": "J001224543"
  },
  {
    "name": "SHOT BAR BR ビーアール 札幌 南2条",
    "address": "北海道札幌市中央区南２条西５丁目　三雄ビル　１階",
    "latitude": 43.0575858226,
    "longitude": 141.3497791045,
    "shop_id": "J001050564"
  },
  {
    "name": "すし嘉 まさ",
    "address": "北海道札幌市中央区南３条西４丁目１９-１ NOBU3・4BLD 2階",
    "latitude": 43.0567568281,
    "longitude": 141.3519664528,
    "shop_id": "J000743524"
  },
  {
    "name": "天ぷらと海鮮のまんてんや",
    "address": "北海道札幌市中央区南３条西４丁目１９－１　NOBU３．４Bld １階",
    "latitude": 43.0567568281,
    "longitude": 141.3519664528,
    "shop_id": "J003715879"
  },
  {
    "name": "やきとり わや",
    "address": "北海道札幌市中央区南３条西３丁目1番地サンスリービル3階",
    "latitude": 43.0564588927,
    "longitude": 141.354533456,
    "shop_id": "J001099145"
  },
  {
    "name": "まんまみ～や 札幌店",
    "address": "北海道札幌市中央区南３条西２丁目３－３（仲小路・南向き）",
    "latitude": 43.0565400337,
    "longitude": 141.3557491721,
    "shop_id": "J000027586"
  },
  {
    "name": "北海道ビール園 HOKKAIDO BEER GARDEN",
    "address": "北海道札幌市中央区南３条西３丁目　Ｇダイニング９F",
    "latitude": 43.0564538848,
    "longitude": 141.3542751468,
    "shop_id": "J000761982"
  },
  {
    "name": "Gapaou Phra chan ガパオウ プラチャン",
    "address": "北海道札幌市中央区南２条西６丁目　ペンシルビル３F",
    "latitude": 43.0578943776,
    "longitude": 141.3492110827,
    "shop_id": "J001268353"
  },
  {
    "name": "PENCIL VANILLA ペンシル バニラ ",
    "address": "北海道札幌市中央区南３条西３丁目６－２ TM24ビル2F",
    "latitude": 43.0564602599,
    "longitude": 141.3538771277,
    "shop_id": "J003324763"
  },
  {
    "name": "サントリーバー SUNTORY BAR STYLISH D スタイリッシュ ディー",
    "address": "北海道札幌市中央区南３条西５丁目　F-DRESS五番街ビル8F（狸小路アーケード内）",
    "latitude": 43.0569589994,
    "longitude": 141.3511612371,
    "shop_id": "J001160733"
  },
  {
    "name": "グラッツェ すすきの南3条店",
    "address": "北海道札幌市中央区南３条西２丁目　ＫＴ三条ビルＢ１Ｆ",
    "latitude": 43.0564461289,
    "longitude": 141.3549134217,
    "shop_id": "J000712705"
  },
  {
    "name": "浜焼き海鮮居酒屋 大庄水産 札幌 読売北海道ビル店",
    "address": "北海道札幌市中央区北４条西４丁目１　読売北海道ビル ２Ｆ",
    "latitude": 43.0663325203,
    "longitude": 141.3492361227,
    "shop_id": "J001010882"
  },
  {
    "name": "大衆酒場 くろべゑ くろべえ 大通本店",
    "address": "北海道札幌市中央区北１条西７丁目　おおわだビル　地下１階",
    "latitude": 43.0608131118,
    "longitude": 141.3468236258,
    "shop_id": "J001143807"
  },
  {
    "name": "WILDFINGERS ワイルドフィンガーズ",
    "address": "北海道札幌市中央区南３条西３　5-2 都ビル B1F",
    "latitude": 43.0564438761,
    "longitude": 141.3539723976,
    "shop_id": "J001160283"
  },
  {
    "name": "人情焼肉 昌苑 3条店",
    "address": "北海道札幌市中央区南３条西４丁目 TOSHO 3.4ビル ７Ｆ",
    "latitude": 43.0567473808,
    "longitude": 141.3518445202,
    "shop_id": "J001195000"
  },
  {
    "name": "カネマス弥平とうふ店",
    "address": "北海道札幌市中央区南３条西３丁目1 サンスリービル1F",
    "latitude": 43.0564336177,
    "longitude": 141.3545245695,
    "shop_id": "J001219350"
  },
  {
    "name": "酒場ソレデモヤッパリ",
    "address": "北海道札幌市中央区南３条西３丁目３－１　サンスリービル２F",
    "latitude": 43.0564336177,
    "longitude": 141.3545245695,
    "shop_id": "J001284801"
  },
  {
    "name": "ジンギスカン　ひげのうし本店",
    "address": "北海道札幌市中央区南３条西５丁目35-3",
    "latitude": 43.0569423349,
    "longitude": 141.3511637379,
    "shop_id": "J003297588"
  },
  {
    "name": "リンダノリンカク 板前とパティシェ",
    "address": "北海道札幌市中央区南3条西３丁目１　サンスリービル4F",
    "latitude": 43.0564336177,
    "longitude": 141.3545245695,
    "shop_id": "J003762699"
  },
  {
    "name": "たこ焼き 銜 はみ",
    "address": "北海道札幌市中央区南３条西３丁目サンスリービル2F",
    "latitude": 43.0564336177,
    "longitude": 141.3545245695,
    "shop_id": "J003893544"
  },
  {
    "name": "郷土料理 おが すすきの",
    "address": "北海道札幌市中央区南３条西３丁目サンスリービル8F",
    "latitude": 43.0564277832,
    "longitude": 141.3544681861,
    "shop_id": "J000303307"
  },
  {
    "name": "かにと道産料理 雪華亭",
    "address": "北海道札幌市中央区南３条西４丁目Ｊ－ＢＯＸビル地階",
    "latitude": 43.0566768413,
    "longitude": 141.3520717257,
    "shop_id": "J000761627"
  },
  {
    "name": "PROST プロースト 札幌",
    "address": "北海道札幌市中央区南３条西３丁目　サンスリービル　６F",
    "latitude": 43.0564233396,
    "longitude": 141.3544790187,
    "shop_id": "J000303320"
  },
  {
    "name": "ハレルヤ HARERUYA 大通店",
    "address": "北海道札幌市中央区大通西６丁目６－９　クリーンビル１F",
    "latitude": 43.0591116827,
    "longitude": 141.3477697529,
    "shop_id": "J001052409"
  },
  {
    "name": "うみんちゅぬやまんちゅぬ 札幌お座敷店",
    "address": "北海道札幌市中央区南３条西４丁目２１番地６　南３西４ビル　５Ｆ",
    "latitude": 43.0567776494,
    "longitude": 141.3516745341,
    "shop_id": "J001135583"
  },
  {
    "name": "さかなとお酒 うぉんたな",
    "address": "北海道札幌市中央区南３条西５丁目　３６－１　F・DRESS　五番街ビル　７F",
    "latitude": 43.0569509437,
    "longitude": 141.3511262409,
    "shop_id": "J001170392"
  },
  {
    "name": "海鮮 串処 漁鶏 Isaridori",
    "address": "北海道札幌市中央区南３条西３丁目　サンスリービル２階",
    "latitude": 43.056429172,
    "longitude": 141.3544717968,
    "shop_id": "J001222874"
  },
  {
    "name": "雷井土音 ライドオン",
    "address": "北海道札幌市中央区南３条西３丁目5-2都ビル2F",
    "latitude": 43.0564291567,
    "longitude": 141.3540029513,
    "shop_id": "J001260093"
  },
  {
    "name": "田酒と鍋　やぶや",
    "address": "北海道札幌市中央区南３条西３丁目５‐２ 都ビル6階",
    "latitude": 43.0564291567,
    "longitude": 141.3540029513,
    "shop_id": "J003832001"
  },
  {
    "name": "エビ クラフトビール WILDFINGERS",
    "address": "北海道札幌市中央区南３条西３丁目５－２　都ビルB1F",
    "latitude": 43.0564291567,
    "longitude": 141.3540029513,
    "shop_id": "J003851568"
  },
  {
    "name": "ボンサルーテカフェ BONSALUTE CAFE",
    "address": "北海道札幌市中央区北４条西４丁目読売新聞社ビル　ホテルグレイスリー札幌1F",
    "latitude": 43.0664019583,
    "longitude": 141.3492966685,
    "shop_id": "J001136359"
  },
  {
    "name": "焼き鳥 紡gi",
    "address": "北海道札幌市中央区南２条西６‐8ペンシルビル1F",
    "latitude": 43.0578482723,
    "longitude": 141.3492158072,
    "shop_id": "J001203946"
  },
  {
    "name": "地酒と道産食材　一笑　別邸",
    "address": "北海道札幌市中央区南３条西３丁目５－２　都ビル",
    "latitude": 43.0564199911,
    "longitude": 141.3540010076,
    "shop_id": "J003625084"
  },
  {
    "name": "海味 はちきょう 本店",
    "address": "北海道札幌市中央区南３条西３丁目都ビル１階",
    "latitude": 43.0564158242,
    "longitude": 141.3539796209,
    "shop_id": "J000621955"
  },
  {
    "name": "居酒屋 しらちゃん",
    "address": "北海道札幌市中央区南３条西３サンスリービル3F",
    "latitude": 43.0564108398,
    "longitude": 141.3544384677,
    "shop_id": "J000938760"
  },
  {
    "name": "Bar Piece of Dream",
    "address": "北海道札幌市中央区南３条西４丁目 南３西４ビル　１階",
    "latitude": 43.0567726481,
    "longitude": 141.3516162064,
    "shop_id": "J000698257"
  },
  {
    "name": "台湾夜市 カシンフウ Sapporo",
    "address": "北海道札幌市中央区南３条西３丁目　Ｇ　ＤＩＮＩＮＧ２Ｆ",
    "latitude": 43.0563972254,
    "longitude": 141.3542859826,
    "shop_id": "J000740760"
  },
  {
    "name": "みわく 味和久",
    "address": "北海道札幌市中央区南３条西３都ビル　4F",
    "latitude": 43.0564102683,
    "longitude": 141.3539482352,
    "shop_id": "J000990267"
  },
  {
    "name": "魚吉別邸 會 かい",
    "address": "北海道札幌市中央区南３条西３丁目　G-DINING札幌ビル４階",
    "latitude": 43.0563955622,
    "longitude": 141.3543851402,
    "shop_id": "J001128100"
  },
  {
    "name": "炭焼ステーキBEEFIMPACT+ プラス",
    "address": "北海道札幌市中央区南３条西５丁目３５番地２",
    "latitude": 43.0568715133,
    "longitude": 141.351261511,
    "shop_id": "J003829575"
  },
  {
    "name": "ドラゴンソウル",
    "address": "北海道札幌市中央区南３条西３丁目10‐1seibidouビル3F",
    "latitude": 43.0564408005,
    "longitude": 141.3533477333,
    "shop_id": "J000973578"
  },
  {
    "name": "お好み焼き まっか 南3条店",
    "address": "北海道札幌市中央区南３条西４丁目20　五番街ビル1F",
    "latitude": 43.0567148828,
    "longitude": 141.3517834167,
    "shop_id": "J001017498"
  },
  {
    "name": "魚桜 咲 saki さき",
    "address": "北海道札幌市中央区南３条西３丁目　G‐DINING札幌　6階",
    "latitude": 43.0563886143,
    "longitude": 141.3542537639,
    "shop_id": "J001028447"
  },
  {
    "name": "韓国料理 韓の香 狸小路店",
    "address": "北海道札幌市中央区南２条西５丁目6-1 東宝プラザ１Ｆ",
    "latitude": 43.0571614517,
    "longitude": 141.3504518459,
    "shop_id": "J000758911"
  },
  {
    "name": "炭火やBB 南3条店",
    "address": "北海道札幌市中央区南３条西４丁目　TOSHO3.4ビル2F・3F",
    "latitude": 43.0566915548,
    "longitude": 141.3518622997,
    "shop_id": "J003560352"
  },
  {
    "name": "海味 はちきょう 別亭 おやじ",
    "address": "北海道札幌市中央区南３条西３丁目　第６桂和ビル１F",
    "latitude": 43.0563941569,
    "longitude": 141.3538790759,
    "shop_id": "J000722384"
  },
  {
    "name": "French Panda フレンチパンダ",
    "address": "北海道札幌市中央区南３条西３丁目3 GDININGビル B1",
    "latitude": 43.0563758405,
    "longitude": 141.35432848,
    "shop_id": "J001238843"
  },
  {
    "name": "赤から札幌南３条店",
    "address": "北海道札幌市中央区南３条西３丁目３　G‐DINING　３F",
    "latitude": 43.0563711178,
    "longitude": 141.3542965388,
    "shop_id": "J000805903"
  },
  {
    "name": "和牛 賽 SAI",
    "address": "北海道札幌市中央区南３条西３丁目　Ｇダイニング８F",
    "latitude": 43.0563752824,
    "longitude": 141.3542484874,
    "shop_id": "J001038555"
  },
  {
    "name": "BAR PROOF バー プルーフ",
    "address": "北海道札幌市中央区南３条西３都ビル５F",
    "latitude": 43.056377775,
    "longitude": 141.3540304518,
    "shop_id": "J000698246"
  },
  {
    "name": "居酒屋 魚 焼物 逸品 縁たけ",
    "address": "北海道札幌市中央区南３条西４丁目２１－３ 五番街ビル3階",
    "latitude": 43.056692384,
    "longitude": 141.3517381445,
    "shop_id": "J003389187"
  },
  {
    "name": "紋別ジンギスカン",
    "address": "北海道札幌市中央区南３条西４丁目 ３・４タカノビル １F",
    "latitude": 43.0567187664,
    "longitude": 141.3516381521,
    "shop_id": "J003763388"
  },
  {
    "name": "串鳥 南2条店",
    "address": "北海道札幌市中央区南２条西５丁目 メゾン本府 １F",
    "latitude": 43.0573069759,
    "longitude": 141.3500357644,
    "shop_id": "J000624031"
  },
  {
    "name": "増毛の食堂 南ん家 札幌店",
    "address": "北海道札幌市中央区南３条西３Tm-24 ビル B1F",
    "latitude": 43.0563619385,
    "longitude": 141.3538771336,
    "shop_id": "J003943101"
  },
  {
    "name": "バインミー サイゴンフレッシュ ポールタウン店",
    "address": "北海道札幌市中央区南３条西４さっぽろ地下街ポールタウン",
    "latitude": 43.05642746,
    "longitude": 141.3530783146,
    "shop_id": "J003916368"
  },
  {
    "name": "炭焼きバル 倉庫",
    "address": "北海道札幌市中央区南３条西３丁目　Ｇ　ＤＩＮＩＮＧビル２Ｆ",
    "latitude": 43.056349172,
    "longitude": 141.3541732182,
    "shop_id": "J000740031"
  },
  {
    "name": "炭火焼 ジンギスカン ポッケ",
    "address": "北海道札幌市中央区南３条西３丁目都ビル3階",
    "latitude": 43.0563491643,
    "longitude": 141.3539374066,
    "shop_id": "J000971922"
  },
  {
    "name": "個室焼肉 つばめ 燕 南三条 本店",
    "address": "北海道札幌市中央区南３条西３克美ビル３F　",
    "latitude": 43.0563683191,
    "longitude": 141.3536468767,
    "shop_id": "J001133446"
  },
  {
    "name": "活菜旬魚 さんかい 南3条店",
    "address": "北海道札幌市中央区南３条西４丁目20東昌３・４ビルB１F",
    "latitude": 43.0565660259,
    "longitude": 141.3522114418,
    "shop_id": "J001145195"
  },
  {
    "name": "釧路の炉ばた　お鶴",
    "address": "北海道札幌市中央区南３条西４丁目21-3 五番街ビル５F",
    "latitude": 43.0566829396,
    "longitude": 141.3517031483,
    "shop_id": "J003785085"
  },
  {
    "name": "北緯43°のスープカレー屋さん",
    "address": "北海道札幌市中央区南４条西１丁目７－２グランドパレスビル１F",
    "latitude": 43.0565450576,
    "longitude": 141.356498547,
    "shop_id": "J000763592"
  },
  {
    "name": "海味 はちきょう 別亭 おふくろ",
    "address": "北海道札幌市中央区南３条西３丁目　TM-24building ２Ｆ",
    "latitude": 43.0563452745,
    "longitude": 141.3538962995,
    "shop_id": "J000797287"
  },
  {
    "name": "クラッシャーズ",
    "address": "北海道札幌市中央区南３条西４丁目　Ｇステージビル２Ｆ",
    "latitude": 43.0567029334,
    "longitude": 141.3515892687,
    "shop_id": "J000806027"
  },
  {
    "name": "北海道しゃぶしゃぶ ポッケ 本店",
    "address": "北海道札幌市中央区南３条西３丁目都ビル　3Ｆ",
    "latitude": 43.056340554,
    "longitude": 141.3539321299,
    "shop_id": "J001051448"
  },
  {
    "name": "居酒屋 くさち",
    "address": "北海道札幌市中央区南３条西４丁目21番地6　3・4ビル　7階",
    "latitude": 43.0566940467,
    "longitude": 141.3516214885,
    "shop_id": "J000751142"
  },
  {
    "name": "世界の山ちゃん すすきの南3条店",
    "address": "北海道札幌市中央区南４条西１丁目７－２  グランパレスビルB１",
    "latitude": 43.0565603351,
    "longitude": 141.3565488192,
    "shop_id": "J001262549"
  },
  {
    "name": "ジンギス館 ムラナカFoodLab",
    "address": "北海道札幌市中央区南３条西３丁目9-2 ＰｙＸｉｓ 8階",
    "latitude": 43.0563641501,
    "longitude": 141.3535593851,
    "shop_id": "J003559651"
  },
  {
    "name": "十方夷第 都ビル店",
    "address": "北海道札幌市中央区南３条西３丁目　都ビル４Ｆ",
    "latitude": 43.056328613,
    "longitude": 141.3539915695,
    "shop_id": "J000026899"
  },
  {
    "name": "因すけ いなすけ 札幌大通店",
    "address": "北海道札幌市中央区南３条西４丁目21-3　五番街ビル６F",
    "latitude": 43.0566646087,
    "longitude": 141.3517095377,
    "shop_id": "J003829379"
  },
  {
    "name": "因すけ イナスケ 大通店",
    "address": "北海道札幌市中央区南３条西４丁目21-3　五番街ビル　６F",
    "latitude": 43.0566646087,
    "longitude": 141.3517095377,
    "shop_id": "J003829380"
  },
  {
    "name": "因すけ inasukeすすきの店",
    "address": "北海道札幌市中央区南３条西４丁目21-3　五番街ビル６F",
    "latitude": 43.0566646087,
    "longitude": 141.3517095377,
    "shop_id": "J003829381"
  },
  {
    "name": "大衆酒泉テルマエ 札幌すすきの泉",
    "address": "北海道札幌市中央区南３条西４丁目21-3 五番街ビル4階",
    "latitude": 43.0566646087,
    "longitude": 141.3517095377,
    "shop_id": "J003873027"
  },
  {
    "name": "煮焚き屋 魚吉",
    "address": "北海道札幌市中央区南３条西４丁目　シルバービルＢ１Ｆ　モスバーガー下",
    "latitude": 43.0564277299,
    "longitude": 141.3528383367,
    "shop_id": "J000026550"
  },
  {
    "name": "カレーショップ エス",
    "address": "北海道札幌市中央区南３条西４丁目　シルバービルＢ１Ｆ",
    "latitude": 43.0564393932,
    "longitude": 141.3527780638,
    "shop_id": "J000027895"
  },
  {
    "name": "Tall Sun Dining トールサン ダイニング",
    "address": "北海道札幌市中央区南３条西３丁目　克美ビル５階",
    "latitude": 43.0563405432,
    "longitude": 141.3535996606,
    "shop_id": "J001009348"
  },
  {
    "name": "炙り旬 あぶりしゅん 札幌 狸小路駅前店",
    "address": "北海道札幌市中央区南３条西４丁目五番街ビル9F",
    "latitude": 43.0566665513,
    "longitude": 141.3516595422,
    "shop_id": "J001036721"
  },
  {
    "name": "海鮮 肉鮮ステーキ円山 狸小路店",
    "address": "北海道札幌市中央区南３条西５丁目　F-DRESS五番街ビル　6F",
    "latitude": 43.0568026312,
    "longitude": 141.3512120753,
    "shop_id": "J001267261"
  },
  {
    "name": "ONIYANMA COFFEE&BEER",
    "address": "北海道札幌市中央区南１条西６丁目２１ー１センチュリーヒルズ１階",
    "latitude": 43.0587897808,
    "longitude": 141.3478764293,
    "shop_id": "J001268007"
  },
  {
    "name": "タイ屋台メシ JIDAPA DX ジダパデラックス",
    "address": "北海道札幌市中央区南４条西１丁目６－２　Ms仲町２F",
    "latitude": 43.0565989529,
    "longitude": 141.3568957293,
    "shop_id": "J000303293"
  },
  {
    "name": "地酒と道産食材 一笑 本店",
    "address": "北海道札幌市中央区南３条西３丁目５－２　都ビル５Ｆ",
    "latitude": 43.0563069505,
    "longitude": 141.3540376777,
    "shop_id": "J003473758"
  },
  {
    "name": "エゾバルバンバン フレッシュセンター",
    "address": "北海道札幌市中央区南３条西４丁目　五番街ビル２F",
    "latitude": 43.0566448872,
    "longitude": 141.3516587103,
    "shop_id": "J001209401"
  },
  {
    "name": "炭火居酒屋 炎 すすきの 南3条店",
    "address": "北海道札幌市中央区南３条西４－２０五番街ビル地下１階",
    "latitude": 43.0566340544,
    "longitude": 141.3516345465,
    "shop_id": "J000650433"
  },
  {
    "name": "アバンティ AVANTI 1923",
    "address": "北海道札幌市中央区南３条西４シルバービル1F",
    "latitude": 43.0564032864,
    "longitude": 141.3527750107,
    "shop_id": "J000999304"
  },
  {
    "name": "Sky Garden Pure Ao スカイガーデン ピュアアオ",
    "address": "北海道札幌市中央区南４条西２TOMORUビル　６F",
    "latitude": 43.0563378282,
    "longitude": 141.3555092066,
    "shop_id": "J003366417"
  },
  {
    "name": "酒場アイカワラズ",
    "address": "北海道札幌市中央区南３条西３丁目８克美ビル2階",
    "latitude": 43.0563005507,
    "longitude": 141.3536802111,
    "shop_id": "J003737063"
  },
  {
    "name": "海鮮イタリアンHANNA",
    "address": "北海道札幌市中央区南４条西２丁目１１－７　TOMORUビル９F",
    "latitude": 43.0563378282,
    "longitude": 141.3555092066,
    "shop_id": "J003851567"
  },
  {
    "name": "オイスター男爵 すすきの駅前店",
    "address": "北海道札幌市中央区南４条西２-11-7 TOMORUビル８F",
    "latitude": 43.0563378282,
    "longitude": 141.3555092066,
    "shop_id": "J003851856"
  },
  {
    "name": "路地裏DINING BOSS ボス",
    "address": "北海道札幌市中央区南３条西３克美ビル2F",
    "latitude": 43.0563005507,
    "longitude": 141.3536802111,
    "shop_id": "J003917331"
  },
  {
    "name": "カレーと酒場　CYK",
    "address": "北海道札幌市中央区北１条西７丁目1-3 エクシビル２F",
    "latitude": 43.06192463,
    "longitude": 141.3464116518,
    "shop_id": "J003838001"
  },
  {
    "name": "カキ小屋 ルンゴカーニバル",
    "address": "北海道札幌市中央区南３条西４丁目",
    "latitude": 43.0564685412,
    "longitude": 141.352315327,
    "shop_id": "J003851317"
  },
  {
    "name": "うおっと 魚人 大通店",
    "address": "北海道札幌市中央区南２条西５丁目サンワード南２西５ビルＢ１Ｆ",
    "latitude": 43.0572864168,
    "longitude": 141.3498499495,
    "shop_id": "J001117174"
  },
  {
    "name": "またたび すすきの",
    "address": "北海道札幌市中央区南４条西１丁目　酒井ビル２Ｆ",
    "latitude": 43.0565195134,
    "longitude": 141.3567518585,
    "shop_id": "J000805715"
  },
  {
    "name": "日晴堂",
    "address": "北海道札幌市中央区南４条西１丁目13-2　No.5ミカエルビル１F",
    "latitude": 43.0566578487,
    "longitude": 141.3573265192,
    "shop_id": "J003942781"
  },
  {
    "name": "YEBISU BAR ヱビスバー 札幌アピア店",
    "address": "北海道札幌市中央区北５条西４JR札幌駅南口広場地下街アピアウエスト",
    "latitude": 43.0669880203,
    "longitude": 141.3499693484,
    "shop_id": "J001203638"
  },
  {
    "name": "千房 札幌アスティ45店",
    "address": "北海道札幌市中央区北４条西５-１　アスティ４５Ｂ１Ｆ",
    "latitude": 43.0662261263,
    "longitude": 141.3486845135,
    "shop_id": "J000250333"
  },